<?xml version="1.0" encoding="UTF-8"?>
<gpx version="1.0" creator="przemienniki.net v.0.1.0" xmlns:xsi="http://www.w3.org/2001/XMLSchema-instance" xmlns="http://www.topografix.com/GPX/1/0" xsi:schemaLocation="http://www.topografix.com/GPX/1/0 http://www.topografix.com/GPX/1/0/gpx.xsd">
 <wpt lat="47.841194" lon="12.654877">
  <name>DB0AAT</name>
  <cmt>70cm DMR repeater

Network: Echolink
QTH: 
Frequency: TX: 439.5500 MHz, RX: 431.9500 MHz
Activation: b.d.
More information: https://przemienniki.net/przemienniki/70cm/DB0AAT</cmt>
  <desc>70cm DMR repeater

Network: Echolink
QTH: 
Frequency: TX: 439.5500 MHz, RX: 431.9500 MHz
Activation: b.d.
More information: https://przemienniki.net/przemienniki/70cm/DB0AAT</desc>
 </wpt>
 <wpt lat="50.687500" lon="12.875000">
  <name>DB0AER</name>
  <cmt>70cm FM repeater

QTH: Auerbach / Erzgebirge
Frequency: TX: 439.4000 MHz, RX: 431.8000 MHz
Activation: ton 1750Hz
More information: https://przemienniki.net/przemienniki/70cm/DB0AER</cmt>
  <desc>70cm FM repeater

QTH: Auerbach / Erzgebirge
Frequency: TX: 439.4000 MHz, RX: 431.8000 MHz
Activation: ton 1750Hz
More information: https://przemienniki.net/przemienniki/70cm/DB0AER</desc>
 </wpt>
 <wpt lat="51.645833" lon="14.041667">
  <name>DB0AF</name>
  <cmt>2m FM repeater

QTH: Altbödern
Frequency: TX: 145.6125 MHz, RX: 145.0125 MHz
Activation: CTCSS (123.0 Hz)
More information: https://przemienniki.net/przemienniki/2m/DB0AF</cmt>
  <desc>2m FM repeater

QTH: Altbödern
Frequency: TX: 145.6125 MHz, RX: 145.0125 MHz
Activation: CTCSS (123.0 Hz)
More information: https://przemienniki.net/przemienniki/2m/DB0AF</desc>
 </wpt>
 <wpt lat="50.562500" lon="13.041667">
  <name>DB0ANA</name>
  <cmt>2m FM repeater

QTH: Pöhlberg, Annaberg
Frequency: TX: 145.6250 MHz, RX: 145.0250 MHz
Activation: b.d.
More information: https://przemienniki.net/przemienniki/2m/DB0ANA</cmt>
  <desc>2m FM repeater

QTH: Pöhlberg, Annaberg
Frequency: TX: 145.6250 MHz, RX: 145.0250 MHz
Activation: b.d.
More information: https://przemienniki.net/przemienniki/2m/DB0ANA</desc>
 </wpt>
 <wpt lat="49.112190" lon="13.135590">
  <name>DB0ARB</name>
  <cmt>70cm FM+DSTAR/DV repeater

Network: Echolink
QTH: Großer Arber
Frequency: TX: 439.2250 MHz, RX: 431.6250 MHz
Activation: CTCSS (71.9 Hz)
More information: https://przemienniki.net/przemienniki/70cm/DB0ARB</cmt>
  <desc>70cm FM+DSTAR/DV repeater

Network: Echolink
QTH: Großer Arber
Frequency: TX: 439.2250 MHz, RX: 431.6250 MHz
Activation: CTCSS (71.9 Hz)
More information: https://przemienniki.net/przemienniki/70cm/DB0ARB</desc>
 </wpt>
 <wpt lat="49.112190" lon="13.135590">
  <name>DB0ARB</name>
  <cmt>2m FM repeater

QTH: Großer Arber
Frequency: TX: 145.6750 MHz, RX: 145.0750 MHz
Activation: CTCSS (71.9 Hz)
More information: https://przemienniki.net/przemienniki/2m/DB0ARB</cmt>
  <desc>2m FM repeater

QTH: Großer Arber
Frequency: TX: 145.6750 MHz, RX: 145.0750 MHz
Activation: CTCSS (71.9 Hz)
More information: https://przemienniki.net/przemienniki/2m/DB0ARB</desc>
 </wpt>
 <wpt lat="47.854167" lon="12.125000">
  <name>DB0AV</name>
  <cmt>70cm FM repeater

QTH: Rosenheim
Frequency: TX: 439.1000 MHz, RX: 431.5000 MHz
Activation: ton 1750Hz
More information: https://przemienniki.net/przemienniki/70cm/DB0AV</cmt>
  <desc>70cm FM repeater

QTH: Rosenheim
Frequency: TX: 439.1000 MHz, RX: 431.5000 MHz
Activation: ton 1750Hz
More information: https://przemienniki.net/przemienniki/70cm/DB0AV</desc>
 </wpt>
 <wpt lat="52.145833" lon="12.625000">
  <name>DB0BEL</name>
  <cmt>70cm FM repeater

QTH: Belzig
Frequency: TX: 439.1750 MHz, RX: 431.5750 MHz
Activation: nośną,ton 1750Hz
More information: https://przemienniki.net/przemienniki/70cm/DB0BEL</cmt>
  <desc>70cm FM repeater

QTH: Belzig
Frequency: TX: 439.1750 MHz, RX: 431.5750 MHz
Activation: nośną,ton 1750Hz
More information: https://przemienniki.net/przemienniki/70cm/DB0BEL</desc>
 </wpt>
 <wpt lat="48.177277" lon="12.773044">
  <name>DB0BKN</name>
  <cmt>70cm FM repeater

QTH: 
Frequency: TX: 439.2500 MHz, RX: 431.6500 MHz
Activation: ton 1750Hz
More information: https://przemienniki.net/przemienniki/70cm/DB0BKN</cmt>
  <desc>70cm FM repeater

QTH: 
Frequency: TX: 439.2500 MHz, RX: 431.6500 MHz
Activation: ton 1750Hz
More information: https://przemienniki.net/przemienniki/70cm/DB0BKN</desc>
 </wpt>
 <wpt lat="52.520833" lon="13.458333">
  <name>DB0BLO</name>
  <cmt>70cm FM repeater

Network: Echolink
QTH: Berlin-Ost
Frequency: TX: 439.2750 MHz, RX: 431.6750 MHz
Activation: ton 1750Hz
More information: https://przemienniki.net/przemienniki/70cm/DB0BLO</cmt>
  <desc>70cm FM repeater

Network: Echolink
QTH: Berlin-Ost
Frequency: TX: 439.2750 MHz, RX: 431.6750 MHz
Activation: ton 1750Hz
More information: https://przemienniki.net/przemienniki/70cm/DB0BLO</desc>
 </wpt>
 <wpt lat="50.461514" lon="10.008781">
  <name>DB0BRH</name>
  <cmt>70cm FM repeater

QTH: Heidelstein
Frequency: TX: 439.3125 MHz, RX: 431.7125 MHz
Activation: ton 1750Hz
More information: https://przemienniki.net/przemienniki/70cm/DB0BRH</cmt>
  <desc>70cm FM repeater

QTH: Heidelstein
Frequency: TX: 439.3125 MHz, RX: 431.7125 MHz
Activation: ton 1750Hz
More information: https://przemienniki.net/przemienniki/70cm/DB0BRH</desc>
 </wpt>
 <wpt lat="52.520833" lon="13.458333">
  <name>DB0BRL</name>
  <cmt>2m FM repeater

QTH: Berlin-Hohenschönhausen
Frequency: TX: 145.7250 MHz, RX: 145.1250 MHz
Activation: ton 1750Hz
More information: https://przemienniki.net/przemienniki/2m/DB0BRL</cmt>
  <desc>2m FM repeater

QTH: Berlin-Hohenschönhausen
Frequency: TX: 145.7250 MHz, RX: 145.1250 MHz
Activation: ton 1750Hz
More information: https://przemienniki.net/przemienniki/2m/DB0BRL</desc>
 </wpt>
 <wpt lat="51.709600" lon="13.948440">
  <name>DB0CAL</name>
  <cmt>70cm FM repeater

QTH: Calau
Frequency: TX: 438.9750 MHz, RX: 431.3750 MHz
Activation: nośną
More information: https://przemienniki.net/przemienniki/70cm/DB0CAL</cmt>
  <desc>70cm FM repeater

QTH: Calau
Frequency: TX: 438.9750 MHz, RX: 431.3750 MHz
Activation: nośną
More information: https://przemienniki.net/przemienniki/70cm/DB0CAL</desc>
 </wpt>
 <wpt lat="51.719990" lon="14.341590">
  <name>DB0CBS</name>
  <cmt>70cm FM repeater

Network: Echolink
QTH: Cottbus
Frequency: TX: 438.8500 MHz, RX: 431.2500 MHz
Activation: ton 1750Hz
More information: https://przemienniki.net/przemienniki/70cm/DB0CBS</cmt>
  <desc>70cm FM repeater

Network: Echolink
QTH: Cottbus
Frequency: TX: 438.8500 MHz, RX: 431.2500 MHz
Activation: ton 1750Hz
More information: https://przemienniki.net/przemienniki/70cm/DB0CBS</desc>
 </wpt>
 <wpt lat="49.306490" lon="12.711700">
  <name>DB0CHA</name>
  <cmt>23cm FM repeater

QTH: Eschlmais
Frequency: TX: 1298.3750 MHz, RX: 1270.3750 MHz
Activation: ton 1750Hz
More information: https://przemienniki.net/przemienniki/23cm/DB0CHA</cmt>
  <desc>23cm FM repeater

QTH: Eschlmais
Frequency: TX: 1298.3750 MHz, RX: 1270.3750 MHz
Activation: ton 1750Hz
More information: https://przemienniki.net/przemienniki/23cm/DB0CHA</desc>
 </wpt>
 <wpt lat="49.306490" lon="12.711700">
  <name>DB0CHA</name>
  <cmt>70cm FM repeater

QTH: Eschlmais
Frequency: TX: 438.9250 MHz, RX: 431.3250 MHz
Activation: CTCSS (71.9 Hz)
More information: https://przemienniki.net/przemienniki/70cm/DB0CHA</cmt>
  <desc>70cm FM repeater

QTH: Eschlmais
Frequency: TX: 438.9250 MHz, RX: 431.3250 MHz
Activation: CTCSS (71.9 Hz)
More information: https://przemienniki.net/przemienniki/70cm/DB0CHA</desc>
 </wpt>
 <wpt lat="50.729167" lon="12.958333">
  <name>DB0CSD</name>
  <cmt>70cm FM repeater

QTH: Chemnitz
Frequency: TX: 438.7000 MHz, RX: 431.7000 MHz
Activation: ton 1750Hz
More information: https://przemienniki.net/przemienniki/70cm/DB0CSD</cmt>
  <desc>70cm FM repeater

QTH: Chemnitz
Frequency: TX: 438.7000 MHz, RX: 431.7000 MHz
Activation: ton 1750Hz
More information: https://przemienniki.net/przemienniki/70cm/DB0CSD</desc>
 </wpt>
 <wpt lat="51.104167" lon="13.791667">
  <name>DB0DD</name>
  <cmt>2m FM repeater

QTH: Dresden-Hellerau
Frequency: TX: 145.6750 MHz, RX: 145.0750 MHz
Activation: b.d.
More information: https://przemienniki.net/przemienniki/2m/DB0DD</cmt>
  <desc>2m FM repeater

QTH: Dresden-Hellerau
Frequency: TX: 145.6750 MHz, RX: 145.0750 MHz
Activation: b.d.
More information: https://przemienniki.net/przemienniki/2m/DB0DD</desc>
 </wpt>
 <wpt lat="51.479167" lon="7.541667">
  <name>DB0DDS</name>
  <cmt>70cm DMR repeater

Network: Echolink
QTH: Dortmund
Frequency: TX: 439.8500 MHz, RX: 430.4500 MHz
Activation: nośną
More information: https://przemienniki.net/przemienniki/70cm/DB0DDS</cmt>
  <desc>70cm DMR repeater

Network: Echolink
QTH: Dortmund
Frequency: TX: 439.8500 MHz, RX: 430.4500 MHz
Activation: nośną
More information: https://przemienniki.net/przemienniki/70cm/DB0DDS</desc>
 </wpt>
 <wpt lat="51.479167" lon="7.541667">
  <name>DB0DO</name>
  <cmt>2m FM repeater

QTH: Dortmund
Frequency: TX: 145.7375 MHz, RX: 145.1375 MHz
Activation: CTCSS (67.0 Hz)
More information: https://przemienniki.net/przemienniki/2m/DB0DO</cmt>
  <desc>2m FM repeater

QTH: Dortmund
Frequency: TX: 145.7375 MHz, RX: 145.1375 MHz
Activation: CTCSS (67.0 Hz)
More information: https://przemienniki.net/przemienniki/2m/DB0DO</desc>
 </wpt>
 <wpt lat="51.479167" lon="7.458333">
  <name>DB0DS</name>
  <cmt>70cm FM repeater

QTH: Dortmund
Frequency: TX: 439.4875 MHz, RX: 431.8875 MHz
Activation: nośną
More information: https://przemienniki.net/przemienniki/70cm/DB0DS</cmt>
  <desc>70cm FM repeater

QTH: Dortmund
Frequency: TX: 439.4875 MHz, RX: 431.8875 MHz
Activation: nośną
More information: https://przemienniki.net/przemienniki/70cm/DB0DS</desc>
 </wpt>
 <wpt lat="52.227017" lon="10.474213">
  <name>DB0DVR</name>
  <cmt>2m FM repeater

QTH: Steinbergstrasse, Braunschweig
Frequency: TX: 145.6375 MHz, RX: 145.0375 MHz
Activation: ton 1750Hz
More information: https://przemienniki.net/przemienniki/2m/DB0DVR</cmt>
  <desc>2m FM repeater

QTH: Steinbergstrasse, Braunschweig
Frequency: TX: 145.6375 MHz, RX: 145.0375 MHz
Activation: ton 1750Hz
More information: https://przemienniki.net/przemienniki/2m/DB0DVR</desc>
 </wpt>
 <wpt lat="52.267087" lon="10.524252">
  <name>DB0DVR</name>
  <cmt>70cm FM repeater

QTH: Wendenstraße, Braunschweig
Frequency: TX: 438.5750 MHz, RX: 430.9750 MHz
Activation: ton 1750Hz
More information: https://przemienniki.net/przemienniki/70cm/DB0DVR</cmt>
  <desc>70cm FM repeater

QTH: Wendenstraße, Braunschweig
Frequency: TX: 438.5750 MHz, RX: 430.9750 MHz
Activation: ton 1750Hz
More information: https://przemienniki.net/przemienniki/70cm/DB0DVR</desc>
 </wpt>
 <wpt lat="52.104167" lon="7.291667">
  <name>DB0EG</name>
  <cmt>70cm FM repeater

QTH: Schoeppingen
Frequency: TX: 438.6750 MHz, RX: 431.0750 MHz
Activation: ton 1750Hz
More information: https://przemienniki.net/przemienniki/70cm/DB0EG</cmt>
  <desc>70cm FM repeater

QTH: Schoeppingen
Frequency: TX: 438.6750 MHz, RX: 431.0750 MHz
Activation: ton 1750Hz
More information: https://przemienniki.net/przemienniki/70cm/DB0EG</desc>
 </wpt>
 <wpt lat="52.145351" lon="14.623777">
  <name>DB0EHS</name>
  <cmt>70cm DMR repeater

Network: Echolink
QTH: Eisenhüttenstadt
Frequency: TX: 439.4500 MHz, RX: 431.8500 MHz
Activation: nośną
More information: https://przemienniki.net/przemienniki/70cm/DB0EHS</cmt>
  <desc>70cm DMR repeater

Network: Echolink
QTH: Eisenhüttenstadt
Frequency: TX: 439.4500 MHz, RX: 431.8500 MHz
Activation: nośną
More information: https://przemienniki.net/przemienniki/70cm/DB0EHS</desc>
 </wpt>
 <wpt lat="52.145351" lon="14.623777">
  <name>DB0EHS</name>
  <cmt>2m APCO-25 repeater

QTH: Eisenhüttenstadt
Frequency: TX: 144.8500 MHz, RX: 144.8500 MHz
Activation: nośną
More information: https://przemienniki.net/przemienniki/2m/DB0EHS</cmt>
  <desc>2m APCO-25 repeater

QTH: Eisenhüttenstadt
Frequency: TX: 144.8500 MHz, RX: 144.8500 MHz
Activation: nośną
More information: https://przemienniki.net/przemienniki/2m/DB0EHS</desc>
 </wpt>
 <wpt lat="52.145351" lon="14.623777">
  <name>DB0EHS</name>
  <cmt>70cm DSTAR/DV+APCO-25 repeater

QTH: Eisenhüttenstadt
Frequency: TX: 430.3750 MHz, RX: 430.3750 MHz
Activation: nośną
More information: https://przemienniki.net/przemienniki/70cm/DB0EHS</cmt>
  <desc>70cm DSTAR/DV+APCO-25 repeater

QTH: Eisenhüttenstadt
Frequency: TX: 430.3750 MHz, RX: 430.3750 MHz
Activation: nośną
More information: https://przemienniki.net/przemienniki/70cm/DB0EHS</desc>
 </wpt>
 <wpt lat="48.174414" lon="11.553766">
  <name>DB0EL</name>
  <cmt>70cm FM repeater

Network: Echolink
QTH: 
Frequency: TX: 439.2750 MHz, RX: 431.6750 MHz
Activation: ton 1750Hz
More information: https://przemienniki.net/przemienniki/70cm/DB0EL</cmt>
  <desc>70cm FM repeater

Network: Echolink
QTH: 
Frequency: TX: 439.2750 MHz, RX: 431.6750 MHz
Activation: ton 1750Hz
More information: https://przemienniki.net/przemienniki/70cm/DB0EL</desc>
 </wpt>
 <wpt lat="50.437500" lon="12.625000">
  <name>DB0ERZ</name>
  <cmt>70cm FM repeater

QTH: Auersberg
Frequency: TX: 439.1125 MHz, RX: 431.5125 MHz
Activation: ton 1750Hz
More information: https://przemienniki.net/przemienniki/70cm/DB0ERZ</cmt>
  <desc>70cm FM repeater

QTH: Auersberg
Frequency: TX: 439.1125 MHz, RX: 431.5125 MHz
Activation: ton 1750Hz
More information: https://przemienniki.net/przemienniki/70cm/DB0ERZ</desc>
 </wpt>
 <wpt lat="52.132831" lon="14.634121">
  <name>DB0FFO</name>
  <cmt>70cm FM repeater

QTH: Eisenhuettenstadt
Frequency: TX: 438.6500 MHz, RX: 431.0500 MHz
Activation: CTCSS (67.0 Hz)
More information: https://przemienniki.net/przemienniki/70cm/DB0FFO</cmt>
  <desc>70cm FM repeater

QTH: Eisenhuettenstadt
Frequency: TX: 438.6500 MHz, RX: 431.0500 MHz
Activation: CTCSS (67.0 Hz)
More information: https://przemienniki.net/przemienniki/70cm/DB0FFO</desc>
 </wpt>
 <wpt lat="52.319863" lon="14.528730">
  <name>DB0FOD</name>
  <cmt>70cm FM repeater

Network: Echolink
QTH: Frankfurt n/Oder
Frequency: TX: 439.0000 MHz, RX: 431.4000 MHz
Activation: ton 1750Hz
More information: https://przemienniki.net/przemienniki/70cm/DB0FOD</cmt>
  <desc>70cm FM repeater

Network: Echolink
QTH: Frankfurt n/Oder
Frequency: TX: 439.0000 MHz, RX: 431.4000 MHz
Activation: ton 1750Hz
More information: https://przemienniki.net/przemienniki/70cm/DB0FOD</desc>
 </wpt>
 <wpt lat="52.319863" lon="14.528730">
  <name>DB0FRO</name>
  <cmt>2m FM repeater

QTH: Frankfurt n/Oder
Frequency: TX: 145.7750 MHz, RX: 145.1750 MHz
Activation: nośną
More information: https://przemienniki.net/przemienniki/2m/DB0FRO</cmt>
  <desc>2m FM repeater

QTH: Frankfurt n/Oder
Frequency: TX: 145.7750 MHz, RX: 145.1750 MHz
Activation: nośną
More information: https://przemienniki.net/przemienniki/2m/DB0FRO</desc>
 </wpt>
 <wpt lat="50.604167" lon="9.708333">
  <name>DB0FUL</name>
  <cmt>70cm FM repeater

Network: Echolink
QTH: Fulda
Frequency: TX: 438.6875 MHz, RX: 431.0875 MHz
Activation: ton 1750Hz
More information: https://przemienniki.net/przemienniki/70cm/DB0FUL</cmt>
  <desc>70cm FM repeater

Network: Echolink
QTH: Fulda
Frequency: TX: 438.6875 MHz, RX: 431.0875 MHz
Activation: ton 1750Hz
More information: https://przemienniki.net/przemienniki/70cm/DB0FUL</desc>
 </wpt>
 <wpt lat="51.171739" lon="14.979255">
  <name>DB0GRZ</name>
  <cmt>70cm FM+C4FM/Fusion repeater

Network: Echolink
QTH: Goerlitz
Frequency: TX: 439.4000 MHz, RX: 431.8000 MHz
Activation: ton 1750Hz
More information: https://przemienniki.net/przemienniki/70cm/DB0GRZ</cmt>
  <desc>70cm FM+C4FM/Fusion repeater

Network: Echolink
QTH: Goerlitz
Frequency: TX: 439.4000 MHz, RX: 431.8000 MHz
Activation: ton 1750Hz
More information: https://przemienniki.net/przemienniki/70cm/DB0GRZ</desc>
 </wpt>
 <wpt lat="51.171739" lon="14.979255">
  <name>DB0GRZ</name>
  <cmt>2m FM repeater

Network: Echolink
QTH: Goerlitz
Frequency: TX: 145.6000 MHz, RX: 145.0000 MHz
Activation: ton 1750Hz
More information: https://przemienniki.net/przemienniki/2m/DB0GRZ</cmt>
  <desc>2m FM repeater

Network: Echolink
QTH: Goerlitz
Frequency: TX: 145.6000 MHz, RX: 145.0000 MHz
Activation: ton 1750Hz
More information: https://przemienniki.net/przemienniki/2m/DB0GRZ</desc>
 </wpt>
 <wpt lat="51.171739" lon="14.979255">
  <name>DB0GRZ-2M</name>
  <cmt>2m FM repeater

QTH: Goerlitz
Frequency: TX: 145.6000 MHz, RX: 145.0000 MHz
Activation: ton 1750Hz
More information: https://przemienniki.net/przemienniki/2m/DB0GRZ-2M</cmt>
  <desc>2m FM repeater

QTH: Goerlitz
Frequency: TX: 145.6000 MHz, RX: 145.0000 MHz
Activation: ton 1750Hz
More information: https://przemienniki.net/przemienniki/2m/DB0GRZ-2M</desc>
 </wpt>
 <wpt lat="54.186866" lon="7.885193">
  <name>DB0HEL</name>
  <cmt>70cm FM repeater

QTH: Helgoland
Frequency: TX: 439.0750 MHz, RX: 431.4750 MHz
Activation: ton 1750Hz
More information: https://przemienniki.net/przemienniki/70cm/DB0HEL</cmt>
  <desc>70cm FM repeater

QTH: Helgoland
Frequency: TX: 439.0750 MHz, RX: 431.4750 MHz
Activation: ton 1750Hz
More information: https://przemienniki.net/przemienniki/70cm/DB0HEL</desc>
 </wpt>
 <wpt lat="53.770833" lon="10.041667">
  <name>DB0HHN</name>
  <cmt>70cm FM+C4FM/Fusion repeater

QTH: Goetzberg
Frequency: TX: 438.3750 MHz, RX: 430.7750 MHz
Activation: CTCSS (67.0 Hz)
More information: https://przemienniki.net/przemienniki/70cm/DB0HHN</cmt>
  <desc>70cm FM+C4FM/Fusion repeater

QTH: Goetzberg
Frequency: TX: 438.3750 MHz, RX: 430.7750 MHz
Activation: CTCSS (67.0 Hz)
More information: https://przemienniki.net/przemienniki/70cm/DB0HHN</desc>
 </wpt>
 <wpt lat="53.647987" lon="10.275599">
  <name>DB0HHO-C</name>
  <cmt>2m DSTAR/DV repeater

QTH: Großhansdorf
Frequency: TX: 145.6125 MHz, RX: 145.0125 MHz
Activation: nośną
More information: https://przemienniki.net/przemienniki/2m/DB0HHO-C</cmt>
  <desc>2m DSTAR/DV repeater

QTH: Großhansdorf
Frequency: TX: 145.6125 MHz, RX: 145.0125 MHz
Activation: nośną
More information: https://przemienniki.net/przemienniki/2m/DB0HHO-C</desc>
 </wpt>
 <wpt lat="51.207275" lon="9.847698">
  <name>DB0HRM</name>
  <cmt>2m FM repeater

QTH: Hoher Meissner, HR-Turm
Frequency: TX: 145.6500 MHz, RX: 145.0500 MHz
Activation: ton 1750Hz
More information: https://przemienniki.net/przemienniki/2m/DB0HRM</cmt>
  <desc>2m FM repeater

QTH: Hoher Meissner, HR-Turm
Frequency: TX: 145.6500 MHz, RX: 145.0500 MHz
Activation: ton 1750Hz
More information: https://przemienniki.net/przemienniki/2m/DB0HRM</desc>
 </wpt>
 <wpt lat="51.207275" lon="9.847698">
  <name>DB0HRM</name>
  <cmt>70cm DSTAR/DV repeater

QTH: Hoher Meissner, HR-Turm
Frequency: TX: 439.5250 MHz, RX: 431.9250 MHz
Activation: nośną
More information: https://przemienniki.net/przemienniki/70cm/DB0HRM</cmt>
  <desc>70cm DSTAR/DV repeater

QTH: Hoher Meissner, HR-Turm
Frequency: TX: 439.5250 MHz, RX: 431.9250 MHz
Activation: nośną
More information: https://przemienniki.net/przemienniki/70cm/DB0HRM</desc>
 </wpt>
 <wpt lat="53.688335" lon="10.807629">
  <name>DB0HZL</name>
  <cmt>70cm FM repeater

Network: Echolink
QTH: Ratzeburg
Frequency: TX: 439.4000 MHz, RX: 431.8000 MHz
Activation: ton 1750Hz
More information: https://przemienniki.net/przemienniki/70cm/DB0HZL</cmt>
  <desc>70cm FM repeater

Network: Echolink
QTH: Ratzeburg
Frequency: TX: 439.4000 MHz, RX: 431.8000 MHz
Activation: ton 1750Hz
More information: https://przemienniki.net/przemienniki/70cm/DB0HZL</desc>
 </wpt>
 <wpt lat="54.495089" lon="11.198941">
  <name>DB0IF</name>
  <cmt>70cm FM repeater

QTH: Fehmarn / Puttgarden
Frequency: TX: 439.0250 MHz, RX: 431.4250 MHz
Activation: ton 1750Hz
More information: https://przemienniki.net/przemienniki/70cm/DB0IF</cmt>
  <desc>70cm FM repeater

QTH: Fehmarn / Puttgarden
Frequency: TX: 439.0250 MHz, RX: 431.4250 MHz
Activation: ton 1750Hz
More information: https://przemienniki.net/przemienniki/70cm/DB0IF</desc>
 </wpt>
 <wpt lat="50.849195" lon="14.646527">
  <name>DB0LAU</name>
  <cmt>70cm FM+ATV repeater

Network: Echolink
QTH: Lausche/Waltersdorf
Frequency: TX: 439.1000 MHz, RX: 431.5000 MHz
Activation: CTCSS (123.0 Hz)
More information: https://przemienniki.net/przemienniki/70cm/DB0LAU</cmt>
  <desc>70cm FM+ATV repeater

Network: Echolink
QTH: Lausche/Waltersdorf
Frequency: TX: 439.1000 MHz, RX: 431.5000 MHz
Activation: CTCSS (123.0 Hz)
More information: https://przemienniki.net/przemienniki/70cm/DB0LAU</desc>
 </wpt>
 <wpt lat="51.249192" lon="12.807344">
  <name>DB0LBH</name>
  <cmt>70cm FM repeater

Network: Echolink
QTH: Deditz, 04685 Nerchau, Niemcy
Frequency: TX: 438.9250 MHz, RX: 431.3250 MHz
Activation: ton 1750Hz,DTMF (*)
More information: https://przemienniki.net/przemienniki/70cm/DB0LBH</cmt>
  <desc>70cm FM repeater

Network: Echolink
QTH: Deditz, 04685 Nerchau, Niemcy
Frequency: TX: 438.9250 MHz, RX: 431.3250 MHz
Activation: ton 1750Hz,DTMF (*)
More information: https://przemienniki.net/przemienniki/70cm/DB0LBH</desc>
 </wpt>
 <wpt lat="51.354167" lon="12.375000">
  <name>DB0LEI</name>
  <cmt>2m FM repeater

QTH: Völkerschlachtdenkmal Leipzig
Frequency: TX: 145.7750 MHz, RX: 145.1750 MHz
Activation: nośną
More information: https://przemienniki.net/przemienniki/2m/DB0LEI</cmt>
  <desc>2m FM repeater

QTH: Völkerschlachtdenkmal Leipzig
Frequency: TX: 145.7750 MHz, RX: 145.1750 MHz
Activation: nośną
More information: https://przemienniki.net/przemienniki/2m/DB0LEI</desc>
 </wpt>
 <wpt lat="51.010278" lon="14.655278">
  <name>DB0LOE</name>
  <cmt>2m FM repeater

QTH: Kottmar / Lobau
Frequency: TX: 145.6250 MHz, RX: 145.0250 MHz
Activation: ton 1750Hz
More information: https://przemienniki.net/przemienniki/2m/DB0LOE</cmt>
  <desc>2m FM repeater

QTH: Kottmar / Lobau
Frequency: TX: 145.6250 MHz, RX: 145.0250 MHz
Activation: ton 1750Hz
More information: https://przemienniki.net/przemienniki/2m/DB0LOE</desc>
 </wpt>
 <wpt lat="52.312500" lon="14.041667">
  <name>DB0LOS</name>
  <cmt>70cm FM repeater

QTH: Rauener Berge
Frequency: TX: 438.7750 MHz, RX: 431.1750 MHz
Activation: ton 1750Hz
More information: https://przemienniki.net/przemienniki/70cm/DB0LOS</cmt>
  <desc>70cm FM repeater

QTH: Rauener Berge
Frequency: TX: 438.7750 MHz, RX: 431.1750 MHz
Activation: ton 1750Hz
More information: https://przemienniki.net/przemienniki/70cm/DB0LOS</desc>
 </wpt>
 <wpt lat="51.520833" lon="13.791667">
  <name>DB0LS</name>
  <cmt>70cm FM repeater

QTH: Oberdorf von Lauchhammer OT Kostebrau Oberdorf von Lauchhammer OT Kostebrau
Frequency: TX: 439.3750 MHz, RX: 431.7750 MHz
Activation: CTCSS (123.0 Hz)
More information: https://przemienniki.net/przemienniki/70cm/DB0LS</cmt>
  <desc>70cm FM repeater

QTH: Oberdorf von Lauchhammer OT Kostebrau Oberdorf von Lauchhammer OT Kostebrau
Frequency: TX: 439.3750 MHz, RX: 431.7750 MHz
Activation: CTCSS (123.0 Hz)
More information: https://przemienniki.net/przemienniki/70cm/DB0LS</desc>
 </wpt>
 <wpt lat="51.789062" lon="13.639153">
  <name>DB0LUC</name>
  <cmt>70cm FM repeater

QTH: Gehren
Frequency: TX: 438.9750 MHz, RX: 431.3750 MHz
Activation: nośną
More information: https://przemienniki.net/przemienniki/70cm/DB0LUC</cmt>
  <desc>70cm FM repeater

QTH: Gehren
Frequency: TX: 438.9750 MHz, RX: 431.3750 MHz
Activation: nośną
More information: https://przemienniki.net/przemienniki/70cm/DB0LUC</desc>
 </wpt>
 <wpt lat="52.312500" lon="13.291667">
  <name>DB0LUD</name>
  <cmt>70cm FM+DSTAR/DV repeater

QTH: Ludwigsfelde
Frequency: TX: 438.5750 MHz, RX: 430.9750 MHz
Activation: nośną
More information: https://przemienniki.net/przemienniki/70cm/DB0LUD</cmt>
  <desc>70cm FM+DSTAR/DV repeater

QTH: Ludwigsfelde
Frequency: TX: 438.5750 MHz, RX: 430.9750 MHz
Activation: nośną
More information: https://przemienniki.net/przemienniki/70cm/DB0LUD</desc>
 </wpt>
 <wpt lat="54.005909" lon="10.770582">
  <name>DB0MAR</name>
  <cmt>2m FM repeater

QTH: Timmendorfer Strand
Frequency: TX: 145.7000 MHz, RX: 145.1000 MHz
Activation: ton 1750Hz
More information: https://przemienniki.net/przemienniki/2m/DB0MAR</cmt>
  <desc>2m FM repeater

QTH: Timmendorfer Strand
Frequency: TX: 145.7000 MHz, RX: 145.1000 MHz
Activation: ton 1750Hz
More information: https://przemienniki.net/przemienniki/2m/DB0MAR</desc>
 </wpt>
 <wpt lat="54.005909" lon="10.770582">
  <name>DB0MAR-B</name>
  <cmt>70cm DSTAR/DV repeater

QTH: Timmendorfer Strand
Frequency: TX: 439.8500 MHz, RX: 430.4500 MHz
Activation: b.d.
More information: https://przemienniki.net/przemienniki/70cm/DB0MAR-B</cmt>
  <desc>70cm DSTAR/DV repeater

QTH: Timmendorfer Strand
Frequency: TX: 439.8500 MHz, RX: 430.4500 MHz
Activation: b.d.
More information: https://przemienniki.net/przemienniki/70cm/DB0MAR-B</desc>
 </wpt>
 <wpt lat="53.801987" lon="10.438125">
  <name>DB0MDW-C</name>
  <cmt>2m DSTAR/DV repeater

QTH: Meddewade
Frequency: TX: 144.9375 MHz, RX: 144.9375 MHz
Activation: b.d.
More information: https://przemienniki.net/przemienniki/2m/DB0MDW-C</cmt>
  <desc>2m DSTAR/DV repeater

QTH: Meddewade
Frequency: TX: 144.9375 MHz, RX: 144.9375 MHz
Activation: b.d.
More information: https://przemienniki.net/przemienniki/2m/DB0MDW-C</desc>
 </wpt>
 <wpt lat="51.729167" lon="14.625000">
  <name>DB0NFL</name>
  <cmt>70cm FM repeater

Network: Echolink
QTH: Forst (Lausitz)
Frequency: TX: 438.9500 MHz, RX: 431.3500 MHz
Activation: ton 1750Hz
More information: https://przemienniki.net/przemienniki/70cm/DB0NFL</cmt>
  <desc>70cm FM repeater

Network: Echolink
QTH: Forst (Lausitz)
Frequency: TX: 438.9500 MHz, RX: 431.3500 MHz
Activation: ton 1750Hz
More information: https://przemienniki.net/przemienniki/70cm/DB0NFL</desc>
 </wpt>
 <wpt lat="51.437500" lon="14.125000">
  <name>DB0NLS</name>
  <cmt>2m FM repeater

QTH: Lauta, Sachsen
Frequency: TX: 145.7375 MHz, RX: 145.1375 MHz
Activation: ton 1750Hz,CTCSS (88.5 Hz)
More information: https://przemienniki.net/przemienniki/2m/DB0NLS</cmt>
  <desc>2m FM repeater

QTH: Lauta, Sachsen
Frequency: TX: 145.7375 MHz, RX: 145.1375 MHz
Activation: ton 1750Hz,CTCSS (88.5 Hz)
More information: https://przemienniki.net/przemienniki/2m/DB0NLS</desc>
 </wpt>
 <wpt lat="47.562500" lon="10.791667">
  <name>DB0OAL</name>
  <cmt>70cm FM repeater

QTH: Tegelberg
Frequency: TX: 438.9375 MHz, RX: 431.3375 MHz
Activation: ton 1750Hz
More information: https://przemienniki.net/przemienniki/70cm/DB0OAL</cmt>
  <desc>70cm FM repeater

QTH: Tegelberg
Frequency: TX: 438.9375 MHz, RX: 431.3375 MHz
Activation: ton 1750Hz
More information: https://przemienniki.net/przemienniki/70cm/DB0OAL</desc>
 </wpt>
 <wpt lat="51.091346" lon="14.692207">
  <name>DB0OLL</name>
  <cmt>70cm C4FM/Fusion repeater

Network: Echolink
QTH: Löbauer Berg
Frequency: TX: 438.5500 MHz, RX: 430.9500 MHz
Activation: nośną
More information: https://przemienniki.net/przemienniki/70cm/DB0OLL</cmt>
  <desc>70cm C4FM/Fusion repeater

Network: Echolink
QTH: Löbauer Berg
Frequency: TX: 438.5500 MHz, RX: 430.9500 MHz
Activation: nośną
More information: https://przemienniki.net/przemienniki/70cm/DB0OLL</desc>
 </wpt>
 <wpt lat="51.729167" lon="8.791667">
  <name>DB0PBS</name>
  <cmt>70cm FM repeater

Network: Echolink
QTH: 
Frequency: TX: 439.3125 MHz, RX: 431.7125 MHz
Activation: ton 1750Hz,CTCSS (136.5 Hz)
More information: https://przemienniki.net/przemienniki/70cm/DB0PBS</cmt>
  <desc>70cm FM repeater

Network: Echolink
QTH: 
Frequency: TX: 439.3125 MHz, RX: 431.7125 MHz
Activation: ton 1750Hz,CTCSS (136.5 Hz)
More information: https://przemienniki.net/przemienniki/70cm/DB0PBS</desc>
 </wpt>
 <wpt lat="54.217275" lon="10.718836">
  <name>DB0PC</name>
  <cmt>70cm FM repeater

QTH: Bungsberg
Frequency: TX: 439.1000 MHz, RX: 431.5000 MHz
Activation: ton 1750Hz
More information: https://przemienniki.net/przemienniki/70cm/DB0PC</cmt>
  <desc>70cm FM repeater

QTH: Bungsberg
Frequency: TX: 439.1000 MHz, RX: 431.5000 MHz
Activation: ton 1750Hz
More information: https://przemienniki.net/przemienniki/70cm/DB0PC</desc>
 </wpt>
 <wpt lat="53.145833" lon="14.125000">
  <name>DB0PCK</name>
  <cmt>2m FM repeater

QTH: Schwedt/Oder
Frequency: TX: 145.6500 MHz, RX: 145.0500 MHz
Activation: nośną,ton 1750Hz
More information: https://przemienniki.net/przemienniki/2m/DB0PCK</cmt>
  <desc>2m FM repeater

QTH: Schwedt/Oder
Frequency: TX: 145.6500 MHz, RX: 145.0500 MHz
Activation: nośną,ton 1750Hz
More information: https://przemienniki.net/przemienniki/2m/DB0PCK</desc>
 </wpt>
 <wpt lat="52.361603" lon="13.066550">
  <name>DB0PDM-2M</name>
  <cmt>2m FM repeater

QTH: Potsdam, Germany
Frequency: TX: 145.6750 MHz, RX: 145.0750 MHz
Activation: ton 1750Hz
More information: https://przemienniki.net/przemienniki/2m/DB0PDM-2M</cmt>
  <desc>2m FM repeater

QTH: Potsdam, Germany
Frequency: TX: 145.6750 MHz, RX: 145.0750 MHz
Activation: ton 1750Hz
More information: https://przemienniki.net/przemienniki/2m/DB0PDM-2M</desc>
 </wpt>
 <wpt lat="51.108765" lon="14.354182">
  <name>DB0PIB-2M</name>
  <cmt>2m FM repeater

Network: Echolink
QTH: Großer Picho bei Wilthen
Frequency: TX: 145.5750 MHz, RX: 144.9750 MHz
Activation: ton 1750Hz
More information: https://przemienniki.net/przemienniki/2m/DB0PIB-2M</cmt>
  <desc>2m FM repeater

Network: Echolink
QTH: Großer Picho bei Wilthen
Frequency: TX: 145.5750 MHz, RX: 144.9750 MHz
Activation: ton 1750Hz
More information: https://przemienniki.net/przemienniki/2m/DB0PIB-2M</desc>
 </wpt>
 <wpt lat="51.108765" lon="14.354182">
  <name>DB0PIB-70CM</name>
  <cmt>70cm C4FM/Fusion repeater

Network: Echolink
QTH: Großen Picho bei Wilthen
Frequency: TX: 439.2000 MHz, RX: 431.6000 MHz
Activation: nośną
More information: https://przemienniki.net/przemienniki/70cm/DB0PIB-70CM</cmt>
  <desc>70cm C4FM/Fusion repeater

Network: Echolink
QTH: Großen Picho bei Wilthen
Frequency: TX: 439.2000 MHz, RX: 431.6000 MHz
Activation: nośną
More information: https://przemienniki.net/przemienniki/70cm/DB0PIB-70CM</desc>
 </wpt>
 <wpt lat="49.437660" lon="12.548070">
  <name>DB0QG</name>
  <cmt>70cm FM repeater

QTH: Altenschneeberg
Frequency: TX: 438.9750 MHz, RX: 431.3750 MHz
Activation: ton 1750Hz
More information: https://przemienniki.net/przemienniki/70cm/DB0QG</cmt>
  <desc>70cm FM repeater

QTH: Altenschneeberg
Frequency: TX: 438.9750 MHz, RX: 431.3750 MHz
Activation: ton 1750Hz
More information: https://przemienniki.net/przemienniki/70cm/DB0QG</desc>
 </wpt>
 <wpt lat="52.270833" lon="13.541667">
  <name>DB0RAG</name>
  <cmt>70cm FM repeater

Network: Echolink
QTH: Ragow
Frequency: TX: 439.3000 MHz, RX: 431.7000 MHz
Activation: ton 1750Hz
More information: https://przemienniki.net/przemienniki/70cm/DB0RAG</cmt>
  <desc>70cm FM repeater

Network: Echolink
QTH: Ragow
Frequency: TX: 439.3000 MHz, RX: 431.7000 MHz
Activation: ton 1750Hz
More information: https://przemienniki.net/przemienniki/70cm/DB0RAG</desc>
 </wpt>
 <wpt lat="48.687500" lon="9.875000">
  <name>DB0RIG</name>
  <cmt>2m FM repeater

QTH: Göppingen
Frequency: TX: 145.1750 MHz, RX: 145.7750 MHz
Activation: ton 1750Hz
More information: https://przemienniki.net/przemienniki/2m/DB0RIG</cmt>
  <desc>2m FM repeater

QTH: Göppingen
Frequency: TX: 145.1750 MHz, RX: 145.7750 MHz
Activation: ton 1750Hz
More information: https://przemienniki.net/przemienniki/2m/DB0RIG</desc>
 </wpt>
 <wpt lat="48.687500" lon="9.875000">
  <name>DB0RIG</name>
  <cmt>70cm FM repeater

QTH: Göppingen
Frequency: TX: 439.0500 MHz, RX: 431.4500 MHz
Activation: ton 1750Hz
More information: https://przemienniki.net/przemienniki/70cm/DB0RIG</cmt>
  <desc>70cm FM repeater

QTH: Göppingen
Frequency: TX: 439.0500 MHz, RX: 431.4500 MHz
Activation: ton 1750Hz
More information: https://przemienniki.net/przemienniki/70cm/DB0RIG</desc>
 </wpt>
 <wpt lat="48.176482" lon="12.731500">
  <name>DB0RKS</name>
  <cmt>70cm FM repeater

QTH: 
Frequency: TX: 431.9000 MHz, RX: 439.5000 MHz
Activation: ton 1750Hz,CTCSS (250.3 Hz)
More information: https://przemienniki.net/przemienniki/70cm/DB0RKS</cmt>
  <desc>70cm FM repeater

QTH: 
Frequency: TX: 431.9000 MHz, RX: 439.5000 MHz
Activation: ton 1750Hz,CTCSS (250.3 Hz)
More information: https://przemienniki.net/przemienniki/70cm/DB0RKS</desc>
 </wpt>
 <wpt lat="54.418446" lon="13.433007">
  <name>DB0RUG</name>
  <cmt>2m FM repeater

QTH: Bergen auf Rügem
Frequency: TX: 145.6000 MHz, RX: 145.0000 MHz
Activation: nośną
More information: https://przemienniki.net/przemienniki/2m/DB0RUG</cmt>
  <desc>2m FM repeater

QTH: Bergen auf Rügem
Frequency: TX: 145.6000 MHz, RX: 145.0000 MHz
Activation: nośną
More information: https://przemienniki.net/przemienniki/2m/DB0RUG</desc>
 </wpt>
 <wpt lat="51.312500" lon="13.041667">
  <name>DB0SAX</name>
  <cmt>23cm ATV repeater

QTH: Collmberg
Frequency: TX: 1242.7000 MHz, RX: 1270.7000 MHz
Activation: b.d.
More information: https://przemienniki.net/przemienniki/23cm/DB0SAX</cmt>
  <desc>23cm ATV repeater

QTH: Collmberg
Frequency: TX: 1242.7000 MHz, RX: 1270.7000 MHz
Activation: b.d.
More information: https://przemienniki.net/przemienniki/23cm/DB0SAX</desc>
 </wpt>
 <wpt lat="48.854200" lon="13.041700">
  <name>DB0SL</name>
  <cmt>2m FM repeater

QTH: Greising
Frequency: TX: 145.7000 MHz, RX: 145.1000 MHz
Activation: ton 1750Hz,CTCSS (71.9 Hz)
More information: https://przemienniki.net/przemienniki/2m/DB0SL</cmt>
  <desc>2m FM repeater

QTH: Greising
Frequency: TX: 145.7000 MHz, RX: 145.1000 MHz
Activation: ton 1750Hz,CTCSS (71.9 Hz)
More information: https://przemienniki.net/przemienniki/2m/DB0SL</desc>
 </wpt>
 <wpt lat="48.854200" lon="13.041700">
  <name>DB0SL</name>
  <cmt>70cm FM repeater

Network: Echolink
QTH: 
Frequency: TX: 439.0500 MHz, RX: 431.4500 MHz
Activation: ton 1750Hz
More information: https://przemienniki.net/przemienniki/70cm/DB0SL</cmt>
  <desc>70cm FM repeater

Network: Echolink
QTH: 
Frequency: TX: 439.0500 MHz, RX: 431.4500 MHz
Activation: ton 1750Hz
More information: https://przemienniki.net/przemienniki/70cm/DB0SL</desc>
 </wpt>
 <wpt lat="52.145833" lon="10.458333">
  <name>DB0SMB</name>
  <cmt>70cm FM repeater

QTH: Salzgitter Watenstedt
Frequency: TX: 438.9750 MHz, RX: 431.3750 MHz
Activation: CTCSS (100.0 Hz)
More information: https://przemienniki.net/przemienniki/70cm/DB0SMB</cmt>
  <desc>70cm FM repeater

QTH: Salzgitter Watenstedt
Frequency: TX: 438.9750 MHz, RX: 431.3750 MHz
Activation: CTCSS (100.0 Hz)
More information: https://przemienniki.net/przemienniki/70cm/DB0SMB</desc>
 </wpt>
 <wpt lat="52.437500" lon="13.125000">
  <name>DB0SP</name>
  <cmt>2m FM repeater

Network: Echolink
QTH: Berlin-Wannsee, Fernmeldeturm Schäferberg
Frequency: TX: 145.6000 MHz, RX: 145.0000 MHz
Activation: ton 1750Hz
More information: https://przemienniki.net/przemienniki/2m/DB0SP</cmt>
  <desc>2m FM repeater

Network: Echolink
QTH: Berlin-Wannsee, Fernmeldeturm Schäferberg
Frequency: TX: 145.6000 MHz, RX: 145.0000 MHz
Activation: ton 1750Hz
More information: https://przemienniki.net/przemienniki/2m/DB0SP</desc>
 </wpt>
 <wpt lat="52.437500" lon="13.125000">
  <name>DB0SP</name>
  <cmt>70cm FM repeater

QTH: Berlin-Wannsee, Fernmeldeturm Schäferberg
Frequency: TX: 439.4250 MHz, RX: 431.8250 MHz
Activation: ton 1750Hz
More information: https://przemienniki.net/przemienniki/70cm/DB0SP</cmt>
  <desc>70cm FM repeater

QTH: Berlin-Wannsee, Fernmeldeturm Schäferberg
Frequency: TX: 439.4250 MHz, RX: 431.8250 MHz
Activation: ton 1750Hz
More information: https://przemienniki.net/przemienniki/70cm/DB0SP</desc>
 </wpt>
 <wpt lat="50.960562" lon="14.690173">
  <name>DB0SPB</name>
  <cmt>70cm FM repeater

Network: Echolink
QTH: Spitzbergstraße 6, 02791 Oderwitz, Deutschland
Frequency: TX: 439.3000 MHz, RX: 431.7000 MHz
Activation: CTCSS (123.0 Hz)
More information: https://przemienniki.net/przemienniki/70cm/DB0SPB</cmt>
  <desc>70cm FM repeater

Network: Echolink
QTH: Spitzbergstraße 6, 02791 Oderwitz, Deutschland
Frequency: TX: 439.3000 MHz, RX: 431.7000 MHz
Activation: CTCSS (123.0 Hz)
More information: https://przemienniki.net/przemienniki/70cm/DB0SPB</desc>
 </wpt>
 <wpt lat="51.719990" lon="14.341590">
  <name>DB0SPN</name>
  <cmt>70cm DMR repeater

Network: Echolink
QTH: Cottbus
Frequency: TX: 431.8875 MHz, RX: 439.4875 MHz
Activation: b.d.
More information: https://przemienniki.net/przemienniki/70cm/DB0SPN</cmt>
  <desc>70cm DMR repeater

Network: Echolink
QTH: Cottbus
Frequency: TX: 431.8875 MHz, RX: 439.4875 MHz
Activation: b.d.
More information: https://przemienniki.net/przemienniki/70cm/DB0SPN</desc>
 </wpt>
 <wpt lat="52.520833" lon="13.291667">
  <name>DB0SX</name>
  <cmt>70cm FM repeater

QTH: Berlin-Charlottenburg
Frequency: TX: 439.0500 MHz, RX: 431.4500 MHz
Activation: ton 1750Hz
More information: https://przemienniki.net/przemienniki/70cm/DB0SX</cmt>
  <desc>70cm FM repeater

QTH: Berlin-Charlottenburg
Frequency: TX: 439.0500 MHz, RX: 431.4500 MHz
Activation: ton 1750Hz
More information: https://przemienniki.net/przemienniki/70cm/DB0SX</desc>
 </wpt>
 <wpt lat="53.499610" lon="10.190584">
  <name>DB0SY</name>
  <cmt>70cm FM repeater

Network: Echolink
QTH: Hamburg-Lohbrügge
Frequency: TX: 438.6250 MHz, RX: 431.0250 MHz
Activation: ton 1750Hz
More information: https://przemienniki.net/przemienniki/70cm/DB0SY</cmt>
  <desc>70cm FM repeater

Network: Echolink
QTH: Hamburg-Lohbrügge
Frequency: TX: 438.6250 MHz, RX: 431.0250 MHz
Activation: ton 1750Hz
More information: https://przemienniki.net/przemienniki/70cm/DB0SY</desc>
 </wpt>
 <wpt lat="52.062500" lon="13.458333">
  <name>DB0TFL</name>
  <cmt>70cm FM repeater

QTH: Baruth/Mark
Frequency: TX: 438.8000 MHz, RX: 431.2000 MHz
Activation: ton 1750Hz
More information: https://przemienniki.net/przemienniki/70cm/DB0TFL</cmt>
  <desc>70cm FM repeater

QTH: Baruth/Mark
Frequency: TX: 438.8000 MHz, RX: 431.2000 MHz
Activation: ton 1750Hz
More information: https://przemienniki.net/przemienniki/70cm/DB0TFL</desc>
 </wpt>
 <wpt lat="49.040220" lon="12.162670">
  <name>DB0TK</name>
  <cmt>2m FM repeater

QTH: Regensburg - Keilberg
Frequency: TX: 145.7500 MHz, RX: 145.1500 MHz
Activation: ton 1750Hz
More information: https://przemienniki.net/przemienniki/2m/DB0TK</cmt>
  <desc>2m FM repeater

QTH: Regensburg - Keilberg
Frequency: TX: 145.7500 MHz, RX: 145.1500 MHz
Activation: ton 1750Hz
More information: https://przemienniki.net/przemienniki/2m/DB0TK</desc>
 </wpt>
 <wpt lat="47.739895" lon="12.233351">
  <name>DB0TR</name>
  <cmt>70cm FM repeater

QTH: 
Frequency: TX: 438.7000 MHz, RX: 431.1000 MHz
Activation: ton 1750Hz
More information: https://przemienniki.net/przemienniki/70cm/DB0TR</cmt>
  <desc>70cm FM repeater

QTH: 
Frequency: TX: 438.7000 MHz, RX: 431.1000 MHz
Activation: ton 1750Hz
More information: https://przemienniki.net/przemienniki/70cm/DB0TR</desc>
 </wpt>
 <wpt lat="47.841196" lon="12.654882">
  <name>DB0TRS</name>
  <cmt>70cm FM repeater

QTH: 
Frequency: TX: 439.1250 MHz, RX: 431.5250 MHz
Activation: ton 1750Hz
More information: https://przemienniki.net/przemienniki/70cm/DB0TRS</cmt>
  <desc>70cm FM repeater

QTH: 
Frequency: TX: 439.1250 MHz, RX: 431.5250 MHz
Activation: ton 1750Hz
More information: https://przemienniki.net/przemienniki/70cm/DB0TRS</desc>
 </wpt>
 <wpt lat="51.479167" lon="7.541667">
  <name>DB0TT</name>
  <cmt>70cm FM repeater

QTH: Dortmund
Frequency: TX: 438.6500 MHz, RX: 431.0500 MHz
Activation: CTCSS (67.0 Hz)
More information: https://przemienniki.net/przemienniki/70cm/DB0TT</cmt>
  <desc>70cm FM repeater

QTH: Dortmund
Frequency: TX: 438.6500 MHz, RX: 431.0500 MHz
Activation: CTCSS (67.0 Hz)
More information: https://przemienniki.net/przemienniki/70cm/DB0TT</desc>
 </wpt>
 <wpt lat="47.801144" lon="11.024570">
  <name>DB0TTB</name>
  <cmt>70cm DMR repeater

Network: Echolink
QTH: Hoher Peißenberg
Frequency: TX: 439.5875 MHz, RX: 431.9875 MHz
Activation: b.d.
More information: https://przemienniki.net/przemienniki/70cm/DB0TTB</cmt>
  <desc>70cm DMR repeater

Network: Echolink
QTH: Hoher Peißenberg
Frequency: TX: 439.5875 MHz, RX: 431.9875 MHz
Activation: b.d.
More information: https://przemienniki.net/przemienniki/70cm/DB0TTB</desc>
 </wpt>
 <wpt lat="51.020850" lon="13.728310">
  <name>DB0TUD</name>
  <cmt>70cm FM repeater

Network: Echolink
QTH: Dresden - (Technische Universität)
Frequency: TX: 438.8750 MHz, RX: 431.2750 MHz
Activation: ton 1750Hz
More information: https://przemienniki.net/przemienniki/70cm/DB0TUD</cmt>
  <desc>70cm FM repeater

Network: Echolink
QTH: Dresden - (Technische Universität)
Frequency: TX: 438.8750 MHz, RX: 431.2750 MHz
Activation: ton 1750Hz
More information: https://przemienniki.net/przemienniki/70cm/DB0TUD</desc>
 </wpt>
 <wpt lat="48.354167" lon="10.958333">
  <name>DB0UA</name>
  <cmt>70cm FM repeater

QTH: Augsburg
Frequency: TX: 438.6750 MHz, RX: 431.0750 MHz
Activation: ton 1750Hz
More information: https://przemienniki.net/przemienniki/70cm/DB0UA</cmt>
  <desc>70cm FM repeater

QTH: Augsburg
Frequency: TX: 438.6750 MHz, RX: 431.0750 MHz
Activation: ton 1750Hz
More information: https://przemienniki.net/przemienniki/70cm/DB0UA</desc>
 </wpt>
 <wpt lat="48.354167" lon="10.958333">
  <name>DB0UA</name>
  <cmt>2m FM repeater

Network: Echolink
QTH: Augsburg
Frequency: TX: 145.6375 MHz, RX: 145.0375 MHz
Activation: CTCSS (88.5 Hz)
More information: https://przemienniki.net/przemienniki/2m/DB0UA</cmt>
  <desc>2m FM repeater

Network: Echolink
QTH: Augsburg
Frequency: TX: 145.6375 MHz, RX: 145.0375 MHz
Activation: CTCSS (88.5 Hz)
More information: https://przemienniki.net/przemienniki/2m/DB0UA</desc>
 </wpt>
 <wpt lat="50.603947" lon="9.676788">
  <name>DB0UE</name>
  <cmt>2m FM repeater

QTH: Fulda
Frequency: TX: 145.6375 MHz, RX: 145.0375 MHz
Activation: ton 1750Hz
More information: https://przemienniki.net/przemienniki/2m/DB0UE</cmt>
  <desc>2m FM repeater

QTH: Fulda
Frequency: TX: 145.6375 MHz, RX: 145.0375 MHz
Activation: ton 1750Hz
More information: https://przemienniki.net/przemienniki/2m/DB0UE</desc>
 </wpt>
 <wpt lat="51.812500" lon="8.958333">
  <name>DB0UG</name>
  <cmt>70cm FM repeater

QTH: Paderborn-Eggegebirge
Frequency: TX: 439.0250 MHz, RX: 431.4250 MHz
Activation: ton 1750Hz,CTCSS (67.0 Hz)
More information: https://przemienniki.net/przemienniki/70cm/DB0UG</cmt>
  <desc>70cm FM repeater

QTH: Paderborn-Eggegebirge
Frequency: TX: 439.0250 MHz, RX: 431.4250 MHz
Activation: ton 1750Hz,CTCSS (67.0 Hz)
More information: https://przemienniki.net/przemienniki/70cm/DB0UG</desc>
 </wpt>
 <wpt lat="53.187500" lon="14.208333">
  <name>DB0UM</name>
  <cmt>70cm FM repeater

QTH: Casekow
Frequency: TX: 439.2375 MHz, RX: 431.6375 MHz
Activation: ton 1750Hz
More information: https://przemienniki.net/przemienniki/70cm/DB0UM</cmt>
  <desc>70cm FM repeater

QTH: Casekow
Frequency: TX: 439.2375 MHz, RX: 431.6375 MHz
Activation: ton 1750Hz
More information: https://przemienniki.net/przemienniki/70cm/DB0UM</desc>
 </wpt>
 <wpt lat="50.729167" lon="6.041667">
  <name>DB0WA</name>
  <cmt>2m FM repeater

Network: Echolink
QTH: Aachen
Frequency: TX: 145.7875 MHz, RX: 145.1875 MHz
Activation: CTCSS (94.8 Hz)
More information: https://przemienniki.net/przemienniki/2m/DB0WA</cmt>
  <desc>2m FM repeater

Network: Echolink
QTH: Aachen
Frequency: TX: 145.7875 MHz, RX: 145.1875 MHz
Activation: CTCSS (94.8 Hz)
More information: https://przemienniki.net/przemienniki/2m/DB0WA</desc>
 </wpt>
 <wpt lat="50.498770" lon="9.937037">
  <name>DB0WAS</name>
  <cmt>70cm FM repeater

QTH: Wasserkuppe / Hessen
Frequency: TX: 438.9500 MHz, RX: 431.3500 MHz
Activation: nośną
More information: https://przemienniki.net/przemienniki/70cm/DB0WAS</cmt>
  <desc>70cm FM repeater

QTH: Wasserkuppe / Hessen
Frequency: TX: 438.9500 MHz, RX: 431.3500 MHz
Activation: nośną
More information: https://przemienniki.net/przemienniki/70cm/DB0WAS</desc>
 </wpt>
 <wpt lat="51.463258" lon="13.520220">
  <name>DB0WBE</name>
  <cmt>70cm FM repeater

QTH: Elsterwerda, Niemcy
Frequency: TX: 438.9000 MHz, RX: 431.3000 MHz
Activation: b.d.
More information: https://przemienniki.net/przemienniki/70cm/DB0WBE</cmt>
  <desc>70cm FM repeater

QTH: Elsterwerda, Niemcy
Frequency: TX: 438.9000 MHz, RX: 431.3000 MHz
Activation: b.d.
More information: https://przemienniki.net/przemienniki/70cm/DB0WBE</desc>
 </wpt>
 <wpt lat="51.895833" lon="12.625000">
  <name>DB0WBG</name>
  <cmt>70cm FM repeater

QTH: Wittenberg
Frequency: TX: 439.2000 MHz, RX: 431.6000 MHz
Activation: b.d.
More information: https://przemienniki.net/przemienniki/70cm/DB0WBG</cmt>
  <desc>70cm FM repeater

QTH: Wittenberg
Frequency: TX: 439.2000 MHz, RX: 431.6000 MHz
Activation: b.d.
More information: https://przemienniki.net/przemienniki/70cm/DB0WBG</desc>
 </wpt>
 <wpt lat="53.145833" lon="12.208333">
  <name>DB0WIT</name>
  <cmt>2m FM repeater

QTH: Wittstock-Pritzwalk
Frequency: TX: 145.7375 MHz, RX: 145.1375 MHz
Activation: b.d.
More information: https://przemienniki.net/przemienniki/2m/DB0WIT</cmt>
  <desc>2m FM repeater

QTH: Wittstock-Pritzwalk
Frequency: TX: 145.7375 MHz, RX: 145.1375 MHz
Activation: b.d.
More information: https://przemienniki.net/przemienniki/2m/DB0WIT</desc>
 </wpt>
 <wpt lat="50.497692" lon="9.935862">
  <name>DB0WK</name>
  <cmt>70cm DSTAR/DV repeater

QTH: Wasserkuppe / Hessen
Frequency: TX: 439.4625 MHz, RX: 431.8625 MHz
Activation: nośną
More information: https://przemienniki.net/przemienniki/70cm/DB0WK</cmt>
  <desc>70cm DSTAR/DV repeater

QTH: Wasserkuppe / Hessen
Frequency: TX: 439.4625 MHz, RX: 431.8625 MHz
Activation: nośną
More information: https://przemienniki.net/przemienniki/70cm/DB0WK</desc>
 </wpt>
 <wpt lat="50.497726" lon="9.936050">
  <name>DB0WK</name>
  <cmt>70cm APCO-25 repeater

QTH: Wasserkuppe / Hessen
Frequency: TX: 439.8250 MHz, RX: 430.4250 MHz
Activation: nośną
More information: https://przemienniki.net/przemienniki/70cm/DB0WK</cmt>
  <desc>70cm APCO-25 repeater

QTH: Wasserkuppe / Hessen
Frequency: TX: 439.8250 MHz, RX: 430.4250 MHz
Activation: nośną
More information: https://przemienniki.net/przemienniki/70cm/DB0WK</desc>
 </wpt>
 <wpt lat="51.979167" lon="7.625000">
  <name>DB0WM</name>
  <cmt>2m FM repeater

QTH: Münster
Frequency: TX: 145.7000 MHz, RX: 145.1000 MHz
Activation: ton 1750Hz
More information: https://przemienniki.net/przemienniki/2m/DB0WM</cmt>
  <desc>2m FM repeater

QTH: Münster
Frequency: TX: 145.7000 MHz, RX: 145.1000 MHz
Activation: ton 1750Hz
More information: https://przemienniki.net/przemienniki/2m/DB0WM</desc>
 </wpt>
 <wpt lat="51.687500" lon="12.291667">
  <name>DB0WOF</name>
  <cmt>70cm FM repeater

Network: Echolink
QTH: Wolfen
Frequency: TX: 439.0750 MHz, RX: 431.4750 MHz
Activation: ton 1750Hz
More information: https://przemienniki.net/przemienniki/70cm/DB0WOF</cmt>
  <desc>70cm FM repeater

Network: Echolink
QTH: Wolfen
Frequency: TX: 439.0750 MHz, RX: 431.4750 MHz
Activation: ton 1750Hz
More information: https://przemienniki.net/przemienniki/70cm/DB0WOF</desc>
 </wpt>
 <wpt lat="52.741913" lon="13.963556">
  <name>DB0WOL</name>
  <cmt>70cm FM repeater

QTH: Wollenberg
Frequency: TX: 439.1500 MHz, RX: 431.5500 MHz
Activation: ton 1750Hz
More information: https://przemienniki.net/przemienniki/70cm/DB0WOL</cmt>
  <desc>70cm FM repeater

QTH: Wollenberg
Frequency: TX: 439.1500 MHz, RX: 431.5500 MHz
Activation: ton 1750Hz
More information: https://przemienniki.net/przemienniki/70cm/DB0WOL</desc>
 </wpt>
 <wpt lat="53.567230" lon="9.784230">
  <name>DB0XH</name>
  <cmt>2m FM repeater

QTH: Hamburg-Blankenese
Frequency: TX: 145.6625 MHz, RX: 145.0625 MHz
Activation: ton 1750Hz
More information: https://przemienniki.net/przemienniki/2m/DB0XH</cmt>
  <desc>2m FM repeater

QTH: Hamburg-Blankenese
Frequency: TX: 145.6625 MHz, RX: 145.0625 MHz
Activation: ton 1750Hz
More information: https://przemienniki.net/przemienniki/2m/DB0XH</desc>
 </wpt>
 <wpt lat="53.604167" lon="9.458333">
  <name>DB0XJ</name>
  <cmt>70cm FM repeater

Network: Echolink
QTH: Stade
Frequency: TX: 438.8000 MHz, RX: 431.2000 MHz
Activation: ton 1750Hz
More information: https://przemienniki.net/przemienniki/70cm/DB0XJ</cmt>
  <desc>70cm FM repeater

Network: Echolink
QTH: Stade
Frequency: TX: 438.8000 MHz, RX: 431.2000 MHz
Activation: ton 1750Hz
More information: https://przemienniki.net/przemienniki/70cm/DB0XJ</desc>
 </wpt>
 <wpt lat="49.319098" lon="8.082420">
  <name>DB0XK</name>
  <cmt>2m FM repeater

QTH: Kalmit
Frequency: TX: 145.7000 MHz, RX: 145.1000 MHz
Activation: ton 1750Hz
More information: https://przemienniki.net/przemienniki/2m/DB0XK</cmt>
  <desc>2m FM repeater

QTH: Kalmit
Frequency: TX: 145.7000 MHz, RX: 145.1000 MHz
Activation: ton 1750Hz
More information: https://przemienniki.net/przemienniki/2m/DB0XK</desc>
 </wpt>
 <wpt lat="53.882349" lon="10.660847">
  <name>DB0XL</name>
  <cmt>70cm FM repeater

QTH: Lübeck
Frequency: TX: 438.9000 MHz, RX: 431.3000 MHz
Activation: ton 1750Hz
More information: https://przemienniki.net/przemienniki/70cm/DB0XL</cmt>
  <desc>70cm FM repeater

QTH: Lübeck
Frequency: TX: 438.9000 MHz, RX: 431.3000 MHz
Activation: ton 1750Hz
More information: https://przemienniki.net/przemienniki/70cm/DB0XL</desc>
 </wpt>
 <wpt lat="49.046140" lon="12.753750">
  <name>DB0YC</name>
  <cmt>2m FM repeater

QTH: Kreuzhaus
Frequency: TX: 145.6375 MHz, RX: 145.0375 MHz
Activation: CTCSS (71.9 Hz)
More information: https://przemienniki.net/przemienniki/2m/DB0YC</cmt>
  <desc>2m FM repeater

QTH: Kreuzhaus
Frequency: TX: 145.6375 MHz, RX: 145.0375 MHz
Activation: CTCSS (71.9 Hz)
More information: https://przemienniki.net/przemienniki/2m/DB0YC</desc>
 </wpt>
 <wpt lat="47.520833" lon="10.208333">
  <name>DB0ZD</name>
  <cmt>70cm FM repeater

Network: Echolink
QTH: Mittagberg
Frequency: TX: 439.0000 MHz, RX: 431.4000 MHz
Activation: ton 1750Hz
More information: https://przemienniki.net/przemienniki/70cm/DB0ZD</cmt>
  <desc>70cm FM repeater

Network: Echolink
QTH: Mittagberg
Frequency: TX: 439.0000 MHz, RX: 431.4000 MHz
Activation: ton 1750Hz
More information: https://przemienniki.net/przemienniki/70cm/DB0ZD</desc>
 </wpt>
 <wpt lat="49.402810" lon="8.730529">
  <name>DB0ZH</name>
  <cmt>2m FM repeater

QTH: Heidelberg
Frequency: TX: 145.6250 MHz, RX: 145.0250 MHz
Activation: ton 1750Hz
More information: https://przemienniki.net/przemienniki/2m/DB0ZH</cmt>
  <desc>2m FM repeater

QTH: Heidelberg
Frequency: TX: 145.6250 MHz, RX: 145.0250 MHz
Activation: ton 1750Hz
More information: https://przemienniki.net/przemienniki/2m/DB0ZH</desc>
 </wpt>
 <wpt lat="52.187500" lon="8.041667">
  <name>DB0ZO</name>
  <cmt>2m FM repeater

QTH: Dörenberg
Frequency: TX: 145.7625 MHz, RX: 145.1625 MHz
Activation: CTCSS (123.0 Hz)
More information: https://przemienniki.net/przemienniki/2m/DB0ZO</cmt>
  <desc>2m FM repeater

QTH: Dörenberg
Frequency: TX: 145.7625 MHz, RX: 145.1625 MHz
Activation: CTCSS (123.0 Hz)
More information: https://przemienniki.net/przemienniki/2m/DB0ZO</desc>
 </wpt>
 <wpt lat="47.421072" lon="10.985293">
  <name>DB0ZU</name>
  <cmt>2m FM repeater

QTH: Zugspitze
Frequency: TX: 145.7250 MHz, RX: 145.1250 MHz
Activation: ton 1750Hz
More information: https://przemienniki.net/przemienniki/2m/DB0ZU</cmt>
  <desc>2m FM repeater

QTH: Zugspitze
Frequency: TX: 145.7250 MHz, RX: 145.1250 MHz
Activation: ton 1750Hz
More information: https://przemienniki.net/przemienniki/2m/DB0ZU</desc>
 </wpt>
 <wpt lat="47.421072" lon="10.985293">
  <name>DB0ZU</name>
  <cmt>70cm FM repeater

QTH: Zugspitze
Frequency: TX: 438.8500 MHz, RX: 431.2500 MHz
Activation: ton 1750Hz
More information: https://przemienniki.net/przemienniki/70cm/DB0ZU</cmt>
  <desc>70cm FM repeater

QTH: Zugspitze
Frequency: TX: 438.8500 MHz, RX: 431.2500 MHz
Activation: ton 1750Hz
More information: https://przemienniki.net/przemienniki/70cm/DB0ZU</desc>
 </wpt>
 <wpt lat="47.421072" lon="10.985293">
  <name>DB0ZU</name>
  <cmt>23cm FM repeater

QTH: Zugspitze
Frequency: TX: 1298.6000 MHz, RX: 1270.6000 MHz
Activation: ton 1750Hz
More information: https://przemienniki.net/przemienniki/23cm/DB0ZU</cmt>
  <desc>23cm FM repeater

QTH: Zugspitze
Frequency: TX: 1298.6000 MHz, RX: 1270.6000 MHz
Activation: ton 1750Hz
More information: https://przemienniki.net/przemienniki/23cm/DB0ZU</desc>
 </wpt>
 <wpt lat="53.396650" lon="9.865561">
  <name>DF0HHH</name>
  <cmt>70cm FM repeater

QTH: Hamburg Rosengarten
Frequency: TX: 438.7000 MHz, RX: 431.1000 MHz
Activation: ton 1750Hz
More information: https://przemienniki.net/przemienniki/70cm/DF0HHH</cmt>
  <desc>70cm FM repeater

QTH: Hamburg Rosengarten
Frequency: TX: 438.7000 MHz, RX: 431.1000 MHz
Activation: ton 1750Hz
More information: https://przemienniki.net/przemienniki/70cm/DF0HHH</desc>
 </wpt>
 <wpt lat="53.914063" lon="10.602431">
  <name>DK2DJ-L</name>
  <cmt>70cm  repeater

Network: Echolink
QTH: Stockelsdorf
Frequency: TX: 432.8750 MHz, RX: 432.8750 MHz
Activation: b.d.
More information: https://przemienniki.net/przemienniki/70cm/DK2DJ-L</cmt>
  <desc>70cm  repeater

Network: Echolink
QTH: Stockelsdorf
Frequency: TX: 432.8750 MHz, RX: 432.8750 MHz
Activation: b.d.
More information: https://przemienniki.net/przemienniki/70cm/DK2DJ-L</desc>
 </wpt>
 <wpt lat="48.177365" lon="12.837962">
  <name>DM0BGH</name>
  <cmt>70cm FM repeater

QTH: 
Frequency: TX: 438.6250 MHz, RX: 431.0250 MHz
Activation: ton 1750Hz
More information: https://przemienniki.net/przemienniki/70cm/DM0BGH</cmt>
  <desc>70cm FM repeater

QTH: 
Frequency: TX: 438.6250 MHz, RX: 431.0250 MHz
Activation: ton 1750Hz
More information: https://przemienniki.net/przemienniki/70cm/DM0BGH</desc>
 </wpt>
 <wpt lat="51.337320" lon="12.412460">
  <name>DM0LC</name>
  <cmt>70cm C4FM/Fusion repeater

Network: Echolink
QTH: Leipzig
Frequency: TX: 439.3875 MHz, RX: 431.7875 MHz
Activation: nośną
More information: https://przemienniki.net/przemienniki/70cm/DM0LC</cmt>
  <desc>70cm C4FM/Fusion repeater

Network: Echolink
QTH: Leipzig
Frequency: TX: 439.3875 MHz, RX: 431.7875 MHz
Activation: nośną
More information: https://przemienniki.net/przemienniki/70cm/DM0LC</desc>
 </wpt>
 <wpt lat="53.820993" lon="10.829043">
  <name>DM0LUE B</name>
  <cmt>70cm DSTAR/DV repeater

QTH: Lüdersdorf
Frequency: TX: 439.5500 MHz, RX: 431.9500 MHz
Activation: nośną
More information: https://przemienniki.net/przemienniki/70cm/DM0LUE B</cmt>
  <desc>70cm DSTAR/DV repeater

QTH: Lüdersdorf
Frequency: TX: 439.5500 MHz, RX: 431.9500 MHz
Activation: nośną
More information: https://przemienniki.net/przemienniki/70cm/DM0LUE B</desc>
 </wpt>
 <wpt lat="47.702383" lon="12.012244">
  <name>DM0ULR</name>
  <cmt>2m FM repeater

QTH: Wendelstein
Frequency: TX: 145.7875 MHz, RX: 145.1875 MHz
Activation: CTCSS (141.3 Hz)
More information: https://przemienniki.net/przemienniki/2m/DM0ULR</cmt>
  <desc>2m FM repeater

QTH: Wendelstein
Frequency: TX: 145.7875 MHz, RX: 145.1875 MHz
Activation: CTCSS (141.3 Hz)
More information: https://przemienniki.net/przemienniki/2m/DM0ULR</desc>
 </wpt>
 <wpt lat="51.229167" lon="6.958333">
  <name>DO0ERK</name>
  <cmt>2m DSTAR/DV repeater

QTH: Erkrath
Frequency: TX: 145.7625 MHz, RX: 145.1625 MHz
Activation: nośną
More information: https://przemienniki.net/przemienniki/2m/DO0ERK</cmt>
  <desc>2m DSTAR/DV repeater

QTH: Erkrath
Frequency: TX: 145.7625 MHz, RX: 145.1625 MHz
Activation: nośną
More information: https://przemienniki.net/przemienniki/2m/DO0ERK</desc>
 </wpt>
 <wpt lat="49.912789" lon="8.478488">
  <name>DO0GG</name>
  <cmt>70cm FM repeater

QTH: 
Frequency: TX: 438.8500 MHz, RX: 431.2500 MHz
Activation: nośną
More information: https://przemienniki.net/przemienniki/70cm/DO0GG</cmt>
  <desc>70cm FM repeater

QTH: 
Frequency: TX: 438.8500 MHz, RX: 431.2500 MHz
Activation: nośną
More information: https://przemienniki.net/przemienniki/70cm/DO0GG</desc>
 </wpt>
 <wpt lat="49.859652" lon="8.440062">
  <name>DO0LEE</name>
  <cmt>70cm FM repeater

Network: Echolink
QTH: Riedstadt
Frequency: TX: 438.2125 MHz, RX: 430.6125 MHz
Activation: CTCSS (67.0 Hz)
More information: https://przemienniki.net/przemienniki/70cm/DO0LEE</cmt>
  <desc>70cm FM repeater

Network: Echolink
QTH: Riedstadt
Frequency: TX: 438.2125 MHz, RX: 430.6125 MHz
Activation: CTCSS (67.0 Hz)
More information: https://przemienniki.net/przemienniki/70cm/DO0LEE</desc>
 </wpt>
 <wpt lat="49.962944" lon="8.206319">
  <name>DO0SMZ</name>
  <cmt>70cm FM repeater

QTH: Mainz - ZDF Television Center
Frequency: TX: 439.3000 MHz, RX: 431.7000 MHz
Activation: CTCSS (67.0 Hz)
More information: https://przemienniki.net/przemienniki/70cm/DO0SMZ</cmt>
  <desc>70cm FM repeater

QTH: Mainz - ZDF Television Center
Frequency: TX: 439.3000 MHz, RX: 431.7000 MHz
Activation: CTCSS (67.0 Hz)
More information: https://przemienniki.net/przemienniki/70cm/DO0SMZ</desc>
 </wpt>
 <wpt lat="27.979167" lon="-15.541667">
  <name>ED8ZAB</name>
  <cmt>70cm DSTAR/DV repeater

QTH: Cumbre Gran Canaria
Frequency: TX: 438.4625 MHz, RX: 430.8825 MHz
Activation: nośną
More information: https://przemienniki.net/przemienniki/70cm/ED8ZAB</cmt>
  <desc>70cm DSTAR/DV repeater

QTH: Cumbre Gran Canaria
Frequency: TX: 438.4625 MHz, RX: 430.8825 MHz
Activation: nośną
More information: https://przemienniki.net/przemienniki/70cm/ED8ZAB</desc>
 </wpt>
 <wpt lat="53.187500" lon="-6.291667">
  <name>EI2KPR</name>
  <cmt>2m FM repeater

QTH: Dublin
Frequency: TX: 145.7625 MHz, RX: 145.1625 MHz
Activation: ton 1750Hz,CTCSS (88.5 Hz)
More information: https://przemienniki.net/przemienniki/2m/EI2KPR</cmt>
  <desc>2m FM repeater

QTH: Dublin
Frequency: TX: 145.7625 MHz, RX: 145.1625 MHz
Activation: ton 1750Hz,CTCSS (88.5 Hz)
More information: https://przemienniki.net/przemienniki/2m/EI2KPR</desc>
 </wpt>
 <wpt lat="53.229167" lon="-6.208333">
  <name>EI2TRR</name>
  <cmt>2m FM repeater

QTH: Dublin
Frequency: TX: 145.6000 MHz, RX: 145.0000 MHz
Activation: ton 1750Hz,CTCSS (88.5 Hz)
More information: https://przemienniki.net/przemienniki/2m/EI2TRR</cmt>
  <desc>2m FM repeater

QTH: Dublin
Frequency: TX: 145.6000 MHz, RX: 145.0000 MHz
Activation: ton 1750Hz,CTCSS (88.5 Hz)
More information: https://przemienniki.net/przemienniki/2m/EI2TRR</desc>
 </wpt>
 <wpt lat="53.395833" lon="-6.125000">
  <name>EI7BHR</name>
  <cmt>70cm FM repeater

QTH: Dublin
Frequency: TX: 438.6000 MHz, RX: 431.0000 MHz
Activation: CTCSS (88.5 Hz)
More information: https://przemienniki.net/przemienniki/70cm/EI7BHR</cmt>
  <desc>70cm FM repeater

QTH: Dublin
Frequency: TX: 438.6000 MHz, RX: 431.0000 MHz
Activation: CTCSS (88.5 Hz)
More information: https://przemienniki.net/przemienniki/70cm/EI7BHR</desc>
 </wpt>
 <wpt lat="53.229167" lon="-6.208333">
  <name>EI7TRR</name>
  <cmt>70cm FM repeater

QTH: Dublin
Frequency: TX: 433.2250 MHz, RX: 434.8250 MHz
Activation: ton 1750Hz,CTCSS (88.5 Hz)
More information: https://przemienniki.net/przemienniki/70cm/EI7TRR</cmt>
  <desc>70cm FM repeater

QTH: Dublin
Frequency: TX: 433.2250 MHz, RX: 434.8250 MHz
Activation: ton 1750Hz,CTCSS (88.5 Hz)
More information: https://przemienniki.net/przemienniki/70cm/EI7TRR</desc>
 </wpt>
 <wpt lat="46.991749" lon="28.820958">
  <name>ER1OVR</name>
  <cmt>70cm FM repeater

Network: Echolink
QTH: Chisinau
Frequency: TX: 438.9000 MHz, RX: 431.3000 MHz
Activation: CTCSS (103.5 Hz)
More information: https://przemienniki.net/przemienniki/70cm/ER1OVR</cmt>
  <desc>70cm FM repeater

Network: Echolink
QTH: Chisinau
Frequency: TX: 438.9000 MHz, RX: 431.3000 MHz
Activation: CTCSS (103.5 Hz)
More information: https://przemienniki.net/przemienniki/70cm/ER1OVR</desc>
 </wpt>
 <wpt lat="53.895833" lon="27.458333">
  <name>EU1</name>
  <cmt>2m FM repeater

QTH: Minsk
Frequency: TX: 145.6250 MHz, RX: 145.0250 MHz
Activation: CTCSS (88.5 Hz)
More information: https://przemienniki.net/przemienniki/2m/EU1</cmt>
  <desc>2m FM repeater

QTH: Minsk
Frequency: TX: 145.6250 MHz, RX: 145.0250 MHz
Activation: CTCSS (88.5 Hz)
More information: https://przemienniki.net/przemienniki/2m/EU1</desc>
 </wpt>
 <wpt lat="53.854167" lon="27.291667">
  <name>EU1</name>
  <cmt>70cm FM repeater

QTH: Mińsk
Frequency: TX: 438.1250 MHz, RX: 438.1250 MHz
Activation: nośną
More information: https://przemienniki.net/przemienniki/70cm/EU1</cmt>
  <desc>70cm FM repeater

QTH: Mińsk
Frequency: TX: 438.1250 MHz, RX: 438.1250 MHz
Activation: nośną
More information: https://przemienniki.net/przemienniki/70cm/EU1</desc>
 </wpt>
 <wpt lat="53.927074" lon="27.513611">
  <name>EU1A00R</name>
  <cmt>70cm FM repeater

QTH: Mińsk
Frequency: TX: 438.7250 MHz, RX: 431.2250 MHz
Activation: b.d.
More information: https://przemienniki.net/przemienniki/70cm/EU1A00R</cmt>
  <desc>70cm FM repeater

QTH: Mińsk
Frequency: TX: 438.7250 MHz, RX: 431.2250 MHz
Activation: b.d.
More information: https://przemienniki.net/przemienniki/70cm/EU1A00R</desc>
 </wpt>
 <wpt lat="53.895833" lon="27.458333">
  <name>EU1A01R</name>
  <cmt>70cm FM repeater

QTH: Minsk
Frequency: TX: 438.8250 MHz, RX: 431.2250 MHz
Activation: nośną
More information: https://przemienniki.net/przemienniki/70cm/EU1A01R</cmt>
  <desc>70cm FM repeater

QTH: Minsk
Frequency: TX: 438.8250 MHz, RX: 431.2250 MHz
Activation: nośną
More information: https://przemienniki.net/przemienniki/70cm/EU1A01R</desc>
 </wpt>
 <wpt lat="52.106905" lon="23.741407">
  <name>EU1XX</name>
  <cmt>2m FM repeater

QTH: Brest
Frequency: TX: 145.7750 MHz, RX: 145.1750 MHz
Activation: b.d.
More information: https://przemienniki.net/przemienniki/2m/EU1XX</cmt>
  <desc>2m FM repeater

QTH: Brest
Frequency: TX: 145.7750 MHz, RX: 145.1750 MHz
Activation: b.d.
More information: https://przemienniki.net/przemienniki/2m/EU1XX</desc>
 </wpt>
 <wpt lat="53.167361" lon="29.276693">
  <name>EU1XXXX</name>
  <cmt>70cm FM repeater

QTH: Bobrujsk
Frequency: TX: 438.7000 MHz, RX: 431.1000 MHz
Activation: b.d.
More information: https://przemienniki.net/przemienniki/70cm/EU1XXXX</cmt>
  <desc>70cm FM repeater

QTH: Bobrujsk
Frequency: TX: 438.7000 MHz, RX: 431.1000 MHz
Activation: b.d.
More information: https://przemienniki.net/przemienniki/70cm/EU1XXXX</desc>
 </wpt>
 <wpt lat="55.523022" lon="28.696083">
  <name>EU2XX</name>
  <cmt>2m FM repeater

QTH: Novopolock
Frequency: TX: 145.6750 MHz, RX: 145.0750 MHz
Activation: b.d.
More information: https://przemienniki.net/przemienniki/2m/EU2XX</cmt>
  <desc>2m FM repeater

QTH: Novopolock
Frequency: TX: 145.6750 MHz, RX: 145.0750 MHz
Activation: b.d.
More information: https://przemienniki.net/przemienniki/2m/EU2XX</desc>
 </wpt>
 <wpt lat="52.111725" lon="23.773250">
  <name>EU3XX</name>
  <cmt>70cm DMR repeater

Network: Echolink
QTH: Brest
Frequency: TX: 438.8000 MHz, RX: 431.2000 MHz
Activation: b.d.
More information: https://przemienniki.net/przemienniki/70cm/EU3XX</cmt>
  <desc>70cm DMR repeater

Network: Echolink
QTH: Brest
Frequency: TX: 438.8000 MHz, RX: 431.2000 MHz
Activation: b.d.
More information: https://przemienniki.net/przemienniki/70cm/EU3XX</desc>
 </wpt>
 <wpt lat="53.687500" lon="23.791667">
  <name>EU4BLC-R</name>
  <cmt>70cm FM repeater

QTH: KO13VQ
Frequency: TX: 439.4250 MHz, RX: 431.8250 MHz
Activation: CTCSS (67.0 Hz)
More information: https://przemienniki.net/przemienniki/70cm/EU4BLC-R</cmt>
  <desc>70cm FM repeater

QTH: KO13VQ
Frequency: TX: 439.4250 MHz, RX: 431.8250 MHz
Activation: CTCSS (67.0 Hz)
More information: https://przemienniki.net/przemienniki/70cm/EU4BLC-R</desc>
 </wpt>
 <wpt lat="53.150712" lon="29.237159">
  <name>EU4XX</name>
  <cmt>2m FM repeater

QTH: Bobrujsk
Frequency: TX: 145.7000 MHz, RX: 145.1000 MHz
Activation: b.d.
More information: https://przemienniki.net/przemienniki/2m/EU4XX</cmt>
  <desc>2m FM repeater

QTH: Bobrujsk
Frequency: TX: 145.7000 MHz, RX: 145.1000 MHz
Activation: b.d.
More information: https://przemienniki.net/przemienniki/2m/EU4XX</desc>
 </wpt>
 <wpt lat="53.292134" lon="28.624672">
  <name>EU4XXX</name>
  <cmt>2m FM repeater

QTH: Osipovichi
Frequency: TX: 145.7750 MHz, RX: 145.1750 MHz
Activation: b.d.
More information: https://przemienniki.net/przemienniki/2m/EU4XXX</cmt>
  <desc>2m FM repeater

QTH: Osipovichi
Frequency: TX: 145.7750 MHz, RX: 145.1750 MHz
Activation: b.d.
More information: https://przemienniki.net/przemienniki/2m/EU4XXX</desc>
 </wpt>
 <wpt lat="52.791373" lon="27.536338">
  <name>EU5XX</name>
  <cmt>2m FM repeater

QTH: Soligorsk
Frequency: TX: 145.7250 MHz, RX: 145.1250 MHz
Activation: b.d.
More information: https://przemienniki.net/przemienniki/2m/EU5XX</cmt>
  <desc>2m FM repeater

QTH: Soligorsk
Frequency: TX: 145.7250 MHz, RX: 145.1250 MHz
Activation: b.d.
More information: https://przemienniki.net/przemienniki/2m/EU5XX</desc>
 </wpt>
 <wpt lat="52.437500" lon="30.958333">
  <name>EU8A00R</name>
  <cmt>70cm FM repeater

QTH: Gomel
Frequency: TX: 434.6000 MHz, RX: 433.0000 MHz
Activation: CTCSS (162.2 Hz)
More information: https://przemienniki.net/przemienniki/70cm/EU8A00R</cmt>
  <desc>70cm FM repeater

QTH: Gomel
Frequency: TX: 434.6000 MHz, RX: 433.0000 MHz
Activation: CTCSS (162.2 Hz)
More information: https://przemienniki.net/przemienniki/70cm/EU8A00R</desc>
 </wpt>
 <wpt lat="53.687500" lon="23.791667">
  <name>EV4UHF</name>
  <cmt>70cm FM repeater

QTH: Grodno
Frequency: TX: 439.4250 MHz, RX: 431.8250 MHz
Activation: CTCSS (67.0 Hz)
More information: https://przemienniki.net/przemienniki/70cm/EV4UHF</cmt>
  <desc>70cm FM repeater

QTH: Grodno
Frequency: TX: 439.4250 MHz, RX: 431.8250 MHz
Activation: CTCSS (67.0 Hz)
More information: https://przemienniki.net/przemienniki/70cm/EV4UHF</desc>
 </wpt>
 <wpt lat="53.645833" lon="23.875000">
  <name>EV4VHF</name>
  <cmt>2m FM repeater

QTH: Grodno
Frequency: TX: 145.7750 MHz, RX: 145.1750 MHz
Activation: nośną
More information: https://przemienniki.net/przemienniki/2m/EV4VHF</cmt>
  <desc>2m FM repeater

QTH: Grodno
Frequency: TX: 145.7750 MHz, RX: 145.1750 MHz
Activation: nośną
More information: https://przemienniki.net/przemienniki/2m/EV4VHF</desc>
 </wpt>
 <wpt lat="53.895833" lon="30.375000">
  <name>EW7DDG</name>
  <cmt>70cm FM repeater

QTH: Могилёв
Frequency: TX: 430.9000 MHz, RX: 438.5000 MHz
Activation: b.d.
More information: https://przemienniki.net/przemienniki/70cm/EW7DDG</cmt>
  <desc>70cm FM repeater

QTH: Могилёв
Frequency: TX: 430.9000 MHz, RX: 438.5000 MHz
Activation: b.d.
More information: https://przemienniki.net/przemienniki/70cm/EW7DDG</desc>
 </wpt>
 <wpt lat="49.479167" lon="1.041667">
  <name>F5ZFF</name>
  <cmt>2m FM repeater

QTH: Mont Saint Aignan
Frequency: TX: 145.6375 MHz, RX: 145.0375 MHz
Activation: ton 1750Hz
More information: https://przemienniki.net/przemienniki/2m/F5ZFF</cmt>
  <desc>2m FM repeater

QTH: Mont Saint Aignan
Frequency: TX: 145.6375 MHz, RX: 145.0375 MHz
Activation: ton 1750Hz
More information: https://przemienniki.net/przemienniki/2m/F5ZFF</desc>
 </wpt>
 <wpt lat="43.187500" lon="0.125000">
  <name>F5ZSS</name>
  <cmt>2m FM repeater

QTH: BARBAZAN-DEBAT
Frequency: TX: 145.6750 MHz, RX: 145.0750 MHz
Activation: ton 1750Hz
More information: https://przemienniki.net/przemienniki/2m/F5ZSS</cmt>
  <desc>2m FM repeater

QTH: BARBAZAN-DEBAT
Frequency: TX: 145.6750 MHz, RX: 145.0750 MHz
Activation: ton 1750Hz
More information: https://przemienniki.net/przemienniki/2m/F5ZSS</desc>
 </wpt>
 <wpt lat="43.104167" lon="-0.041667">
  <name>F5ZTU</name>
  <cmt>Crossband FM repeater

QTH: LOURDES -65
Frequency: RX/TX: 430.125 + 431.725 MHz
Activation: ton 1750Hz
More information: https://przemienniki.net/przemienniki//F5ZTU</cmt>
  <desc>Crossband FM repeater

QTH: LOURDES -65
Frequency: RX/TX: 430.125 + 431.725 MHz
Activation: ton 1750Hz
More information: https://przemienniki.net/przemienniki//F5ZTU</desc>
 </wpt>
 <wpt lat="43.604167" lon="-1.375000">
  <name>F5ZUL</name>
  <cmt>2m FM repeater

QTH: LABENNE
Frequency: TX: 145.7750 MHz, RX: 145.1750 MHz
Activation: ton 1750Hz
More information: https://przemienniki.net/przemienniki/2m/F5ZUL</cmt>
  <desc>2m FM repeater

QTH: LABENNE
Frequency: TX: 145.7750 MHz, RX: 145.1750 MHz
Activation: ton 1750Hz
More information: https://przemienniki.net/przemienniki/2m/F5ZUL</desc>
 </wpt>
 <wpt lat="42.979167" lon="-0.791667">
  <name>F5ZUW</name>
  <cmt>70cm FM repeater

QTH: La Pierre St Martin - 64
Frequency: TX: 431.9250 MHz, RX: 430.3250 MHz
Activation: ton 1750Hz
More information: https://przemienniki.net/przemienniki/70cm/F5ZUW</cmt>
  <desc>70cm FM repeater

QTH: La Pierre St Martin - 64
Frequency: TX: 431.9250 MHz, RX: 430.3250 MHz
Activation: ton 1750Hz
More information: https://przemienniki.net/przemienniki/70cm/F5ZUW</desc>
 </wpt>
 <wpt lat="42.979167" lon="-0.791667">
  <name>F6ZCV</name>
  <cmt>2m FM repeater

QTH: LA PIERRE SAINT-MARTIN - 64
Frequency: TX: 145.7000 MHz, RX: 145.1000 MHz
Activation: ton 1750Hz
More information: https://przemienniki.net/przemienniki/2m/F6ZCV</cmt>
  <desc>2m FM repeater

QTH: LA PIERRE SAINT-MARTIN - 64
Frequency: TX: 145.7000 MHz, RX: 145.1000 MHz
Activation: ton 1750Hz
More information: https://przemienniki.net/przemienniki/2m/F6ZCV</desc>
 </wpt>
 <wpt lat="51.590000" lon="-2.540000">
  <name>GB3AA</name>
  <cmt>2m FM+DSTAR/DV repeater

QTH: 
Frequency: TX: 145.6625 MHz, RX: 145.0625 MHz
Activation: nośną
More information: https://przemienniki.net/przemienniki/2m/GB3AA</cmt>
  <desc>2m FM+DSTAR/DV repeater

QTH: 
Frequency: TX: 145.6625 MHz, RX: 145.0625 MHz
Activation: nośną
More information: https://przemienniki.net/przemienniki/2m/GB3AA</desc>
 </wpt>
 <wpt lat="53.420000" lon="-1.540000">
  <name>GB3AB</name>
  <cmt>70cm FM+DSTAR/DV repeater

QTH: 
Frequency: TX: 433.3750 MHz, RX: 434.9750 MHz
Activation: nośną
More information: https://przemienniki.net/przemienniki/70cm/GB3AB</cmt>
  <desc>70cm FM+DSTAR/DV repeater

QTH: 
Frequency: TX: 433.3750 MHz, RX: 434.9750 MHz
Activation: nośną
More information: https://przemienniki.net/przemienniki/70cm/GB3AB</desc>
 </wpt>
 <wpt lat="51.500000" lon="-2.580000">
  <name>GB3AC</name>
  <cmt>70cm FM+DSTAR/DV repeater

QTH: 
Frequency: TX: 430.9750 MHz, RX: 438.5750 MHz
Activation: nośną
More information: https://przemienniki.net/przemienniki/70cm/GB3AC</cmt>
  <desc>70cm FM+DSTAR/DV repeater

QTH: 
Frequency: TX: 430.9750 MHz, RX: 438.5750 MHz
Activation: nośną
More information: https://przemienniki.net/przemienniki/70cm/GB3AC</desc>
 </wpt>
 <wpt lat="51.430000" lon="-2.540000">
  <name>GB3AD</name>
  <cmt>70cm DSTAR/DV repeater

QTH: 
Frequency: TX: 439.6875 MHz, RX: 430.6875 MHz
Activation: b.d.
More information: https://przemienniki.net/przemienniki/70cm/GB3AD</cmt>
  <desc>70cm DSTAR/DV repeater

QTH: 
Frequency: TX: 439.6875 MHz, RX: 430.6875 MHz
Activation: b.d.
More information: https://przemienniki.net/przemienniki/70cm/GB3AD</desc>
 </wpt>
 <wpt lat="51.690000" lon="-4.960000">
  <name>GB3AE</name>
  <cmt>6m FM+DSTAR/DV repeater

QTH: 
Frequency: TX: 50.720 MHz, RX: 51.220 MHz
Activation: nośną
More information: https://przemienniki.net/przemienniki/6m/GB3AE</cmt>
  <desc>6m FM+DSTAR/DV repeater

QTH: 
Frequency: TX: 50.720 MHz, RX: 51.220 MHz
Activation: nośną
More information: https://przemienniki.net/przemienniki/6m/GB3AE</desc>
 </wpt>
 <wpt lat="56.560000" lon="-2.830000">
  <name>GB3AG</name>
  <cmt>2m FM+DSTAR/DV repeater

Network: Echolink
QTH: FORFAR
Frequency: TX: 145.7250 MHz, RX: 145.1250 MHz
Activation: nośną
More information: https://przemienniki.net/przemienniki/2m/GB3AG</cmt>
  <desc>2m FM+DSTAR/DV repeater

Network: Echolink
QTH: FORFAR
Frequency: TX: 145.7250 MHz, RX: 145.1250 MHz
Activation: nośną
More information: https://przemienniki.net/przemienniki/2m/GB3AG</desc>
 </wpt>
 <wpt lat="52.660000" lon="0.840000">
  <name>GB3AH</name>
  <cmt>70cm FM+DSTAR/DV repeater

QTH: EAST DEREHAM
Frequency: TX: 433.2750 MHz, RX: 434.8750 MHz
Activation: nośną
More information: https://przemienniki.net/przemienniki/70cm/GB3AH</cmt>
  <desc>70cm FM+DSTAR/DV repeater

QTH: EAST DEREHAM
Frequency: TX: 433.2750 MHz, RX: 434.8750 MHz
Activation: nośną
More information: https://przemienniki.net/przemienniki/70cm/GB3AH</desc>
 </wpt>
 <wpt lat="51.590000" lon="-2.540000">
  <name>GB3AK</name>
  <cmt>23cm FM+DSTAR/DV repeater

QTH: BRISTOL
Frequency: TX: 1297.3500 MHz, RX: 1277.3500 MHz
Activation: nośną
More information: https://przemienniki.net/przemienniki/23cm/GB3AK</cmt>
  <desc>23cm FM+DSTAR/DV repeater

QTH: BRISTOL
Frequency: TX: 1297.3500 MHz, RX: 1277.3500 MHz
Activation: nośną
More information: https://przemienniki.net/przemienniki/23cm/GB3AK</desc>
 </wpt>
 <wpt lat="51.650000" lon="-0.620000">
  <name>GB3AL</name>
  <cmt>2m FM+DSTAR/DV repeater

QTH: AMERSHAM
Frequency: TX: 145.7375 MHz, RX: 145.1375 MHz
Activation: nośną
More information: https://przemienniki.net/przemienniki/2m/GB3AL</cmt>
  <desc>2m FM+DSTAR/DV repeater

QTH: AMERSHAM
Frequency: TX: 145.7375 MHz, RX: 145.1375 MHz
Activation: nośną
More information: https://przemienniki.net/przemienniki/2m/GB3AL</desc>
 </wpt>
 <wpt lat="51.650000" lon="-0.620000">
  <name>GB3AM</name>
  <cmt>6m FM+DSTAR/DV repeater

Network: Echolink
QTH: AMERSHAM
Frequency: TX: 50.840 MHz, RX: 51.340 MHz
Activation: nośną
More information: https://przemienniki.net/przemienniki/6m/GB3AM</cmt>
  <desc>6m FM+DSTAR/DV repeater

Network: Echolink
QTH: AMERSHAM
Frequency: TX: 50.840 MHz, RX: 51.340 MHz
Activation: nośną
More information: https://przemienniki.net/przemienniki/6m/GB3AM</desc>
 </wpt>
 <wpt lat="53.390000" lon="-4.300000">
  <name>GB3AN</name>
  <cmt>70cm FM+DSTAR/DV repeater

QTH: 
Frequency: TX: 433.2000 MHz, RX: 434.8000 MHz
Activation: nośną
More information: https://przemienniki.net/przemienniki/70cm/GB3AN</cmt>
  <desc>70cm FM+DSTAR/DV repeater

QTH: 
Frequency: TX: 433.2000 MHz, RX: 434.8000 MHz
Activation: nośną
More information: https://przemienniki.net/przemienniki/70cm/GB3AN</desc>
 </wpt>
 <wpt lat="53.120000" lon="-4.200000">
  <name>GB3AR</name>
  <cmt>2m FM+DSTAR/DV repeater

Network: Echolink
QTH: CAERNARFON
Frequency: TX: 145.7000 MHz, RX: 145.1000 MHz
Activation: nośną
More information: https://przemienniki.net/przemienniki/2m/GB3AR</cmt>
  <desc>2m FM+DSTAR/DV repeater

Network: Echolink
QTH: CAERNARFON
Frequency: TX: 145.7000 MHz, RX: 145.1000 MHz
Activation: nośną
More information: https://przemienniki.net/przemienniki/2m/GB3AR</desc>
 </wpt>
 <wpt lat="55.110000" lon="-2.930000">
  <name>GB3AS</name>
  <cmt>2m FM+DSTAR/DV repeater

Network: Echolink
QTH: 
Frequency: TX: 145.6000 MHz, RX: 145.0000 MHz
Activation: nośną
More information: https://przemienniki.net/przemienniki/2m/GB3AS</cmt>
  <desc>2m FM+DSTAR/DV repeater

Network: Echolink
QTH: 
Frequency: TX: 145.6000 MHz, RX: 145.0000 MHz
Activation: nośną
More information: https://przemienniki.net/przemienniki/2m/GB3AS</desc>
 </wpt>
 <wpt lat="51.650000" lon="-0.620000">
  <name>GB3AU</name>
  <cmt>70cm FM+DSTAR/DV repeater

QTH: AMERSHAM
Frequency: TX: 433.1750 MHz, RX: 434.7750 MHz
Activation: nośną
More information: https://przemienniki.net/przemienniki/70cm/GB3AU</cmt>
  <desc>70cm FM+DSTAR/DV repeater

QTH: AMERSHAM
Frequency: TX: 433.1750 MHz, RX: 434.7750 MHz
Activation: nośną
More information: https://przemienniki.net/przemienniki/70cm/GB3AU</desc>
 </wpt>
 <wpt lat="51.810000" lon="-0.810000">
  <name>GB3AV</name>
  <cmt>70cm FM+DSTAR/DV repeater

QTH: AYLESBURY
Frequency: TX: 433.0500 MHz, RX: 434.6500 MHz
Activation: nośną
More information: https://przemienniki.net/przemienniki/70cm/GB3AV</cmt>
  <desc>70cm FM+DSTAR/DV repeater

QTH: AYLESBURY
Frequency: TX: 433.0500 MHz, RX: 434.6500 MHz
Activation: nośną
More information: https://przemienniki.net/przemienniki/70cm/GB3AV</desc>
 </wpt>
 <wpt lat="51.320000" lon="-1.400000">
  <name>GB3AW</name>
  <cmt>70cm FM+DSTAR/DV repeater

QTH: NEWBURY
Frequency: TX: 433.2500 MHz, RX: 434.8500 MHz
Activation: nośną
More information: https://przemienniki.net/przemienniki/70cm/GB3AW</cmt>
  <desc>70cm FM+DSTAR/DV repeater

QTH: NEWBURY
Frequency: TX: 433.2500 MHz, RX: 434.8500 MHz
Activation: nośną
More information: https://przemienniki.net/przemienniki/70cm/GB3AW</desc>
 </wpt>
 <wpt lat="55.730000" lon="-4.760000">
  <name>GB3AY</name>
  <cmt>2m FM+DSTAR/DV repeater

QTH: DALRY
Frequency: TX: 145.6500 MHz, RX: 145.0500 MHz
Activation: nośną
More information: https://przemienniki.net/przemienniki/2m/GB3AY</cmt>
  <desc>2m FM+DSTAR/DV repeater

QTH: DALRY
Frequency: TX: 145.6500 MHz, RX: 145.0500 MHz
Activation: nośną
More information: https://przemienniki.net/przemienniki/2m/GB3AY</desc>
 </wpt>
 <wpt lat="0.000000" lon="0.000000">
  <name>GB3BA</name>
  <cmt>70cm FM+DSTAR/DV repeater

QTH: 
Frequency: TX: 433.3250 MHz, RX: 434.9250 MHz
Activation: nośną
More information: https://przemienniki.net/przemienniki/70cm/GB3BA</cmt>
  <desc>70cm FM+DSTAR/DV repeater

QTH: 
Frequency: TX: 433.3250 MHz, RX: 434.9250 MHz
Activation: nośną
More information: https://przemienniki.net/przemienniki/70cm/GB3BA</desc>
 </wpt>
 <wpt lat="0.000000" lon="0.000000">
  <name>GB3BB</name>
  <cmt>2m FM+DSTAR/DV repeater

QTH: 
Frequency: TX: 145.7000 MHz, RX: 145.1000 MHz
Activation: nośną
More information: https://przemienniki.net/przemienniki/2m/GB3BB</cmt>
  <desc>2m FM+DSTAR/DV repeater

QTH: 
Frequency: TX: 145.7000 MHz, RX: 145.1000 MHz
Activation: nośną
More information: https://przemienniki.net/przemienniki/2m/GB3BB</desc>
 </wpt>
 <wpt lat="51.610000" lon="-3.300000">
  <name>GB3BC</name>
  <cmt>2m FM+DSTAR/DV repeater

Network: Echolink
QTH: PONTYPRIDD
Frequency: TX: 145.7500 MHz, RX: 145.1500 MHz
Activation: nośną
More information: https://przemienniki.net/przemienniki/2m/GB3BC</cmt>
  <desc>2m FM+DSTAR/DV repeater

Network: Echolink
QTH: PONTYPRIDD
Frequency: TX: 145.7500 MHz, RX: 145.1500 MHz
Activation: nośną
More information: https://przemienniki.net/przemienniki/2m/GB3BC</desc>
 </wpt>
 <wpt lat="55.770833" lon="-2.458333">
  <name>GB3BE</name>
  <cmt>70cm FM+DSTAR/DV repeater

QTH: DUNS
Frequency: TX: 430.8625 MHz, RX: 438.4625 MHz
Activation: nośną
More information: https://przemienniki.net/przemienniki/70cm/GB3BE</cmt>
  <desc>70cm FM+DSTAR/DV repeater

QTH: DUNS
Frequency: TX: 430.8625 MHz, RX: 438.4625 MHz
Activation: nośną
More information: https://przemienniki.net/przemienniki/70cm/GB3BE</desc>
 </wpt>
 <wpt lat="0.000000" lon="0.000000">
  <name>GB3BF</name>
  <cmt>2m FM+DSTAR/DV repeater

QTH: 
Frequency: TX: 145.7875 MHz, RX: 145.1875 MHz
Activation: nośną
More information: https://przemienniki.net/przemienniki/2m/GB3BF</cmt>
  <desc>2m FM+DSTAR/DV repeater

QTH: 
Frequency: TX: 145.7875 MHz, RX: 145.1875 MHz
Activation: nośną
More information: https://przemienniki.net/przemienniki/2m/GB3BF</desc>
 </wpt>
 <wpt lat="57.510000" lon="-4.540000">
  <name>GB3BI</name>
  <cmt>2m FM+DSTAR/DV repeater

QTH: 
Frequency: TX: 145.7250 MHz, RX: 145.1250 MHz
Activation: nośną
More information: https://przemienniki.net/przemienniki/2m/GB3BI</cmt>
  <desc>2m FM+DSTAR/DV repeater

QTH: 
Frequency: TX: 145.7250 MHz, RX: 145.1250 MHz
Activation: nośną
More information: https://przemienniki.net/przemienniki/2m/GB3BI</desc>
 </wpt>
 <wpt lat="52.150000" lon="-0.480000">
  <name>GB3BL</name>
  <cmt>70cm FM+DSTAR/DV repeater

QTH: 
Frequency: TX: 430.8750 MHz, RX: 438.4750 MHz
Activation: nośną
More information: https://przemienniki.net/przemienniki/70cm/GB3BL</cmt>
  <desc>70cm FM+DSTAR/DV repeater

QTH: 
Frequency: TX: 430.8750 MHz, RX: 438.4750 MHz
Activation: nośną
More information: https://przemienniki.net/przemienniki/70cm/GB3BL</desc>
 </wpt>
 <wpt lat="0.000000" lon="0.000000">
  <name>GB3BM</name>
  <cmt>2m FM+DSTAR/DV repeater

QTH: 
Frequency: TX: 145.7125 MHz, RX: 145.1125 MHz
Activation: nośną
More information: https://przemienniki.net/przemienniki/2m/GB3BM</cmt>
  <desc>2m FM+DSTAR/DV repeater

QTH: 
Frequency: TX: 145.7125 MHz, RX: 145.1125 MHz
Activation: nośną
More information: https://przemienniki.net/przemienniki/2m/GB3BM</desc>
 </wpt>
 <wpt lat="51.410000" lon="-0.800000">
  <name>GB3BN</name>
  <cmt>70cm FM+DSTAR/DV repeater

Network: Echolink
QTH: BRACKNELL
Frequency: TX: 433.0000 MHz, RX: 434.6000 MHz
Activation: nośną
More information: https://przemienniki.net/przemienniki/70cm/GB3BN</cmt>
  <desc>70cm FM+DSTAR/DV repeater

Network: Echolink
QTH: BRACKNELL
Frequency: TX: 433.0000 MHz, RX: 434.6000 MHz
Activation: nośną
More information: https://przemienniki.net/przemienniki/70cm/GB3BN</desc>
 </wpt>
 <wpt lat="50.830000" lon="-0.120000">
  <name>GB3BR</name>
  <cmt>70cm FM+DSTAR/DV repeater

QTH: BRIGHTON
Frequency: TX: 433.1500 MHz, RX: 434.7500 MHz
Activation: nośną
More information: https://przemienniki.net/przemienniki/70cm/GB3BR</cmt>
  <desc>70cm FM+DSTAR/DV repeater

QTH: BRIGHTON
Frequency: TX: 433.1500 MHz, RX: 434.7500 MHz
Activation: nośną
More information: https://przemienniki.net/przemienniki/70cm/GB3BR</desc>
 </wpt>
 <wpt lat="51.430000" lon="-2.410000">
  <name>GB3BS</name>
  <cmt>70cm FM+DSTAR/DV repeater

QTH: BRISTOL
Frequency: TX: 430.8500 MHz, RX: 438.4500 MHz
Activation: nośną
More information: https://przemienniki.net/przemienniki/70cm/GB3BS</cmt>
  <desc>70cm FM+DSTAR/DV repeater

QTH: BRISTOL
Frequency: TX: 430.8500 MHz, RX: 438.4500 MHz
Activation: nośną
More information: https://przemienniki.net/przemienniki/70cm/GB3BS</desc>
 </wpt>
 <wpt lat="55.820000" lon="-2.080000">
  <name>GB3BT</name>
  <cmt>2m FM+DSTAR/DV repeater

QTH: BERWICK ON TWEED
Frequency: TX: 145.7000 MHz, RX: 145.1000 MHz
Activation: nośną
More information: https://przemienniki.net/przemienniki/2m/GB3BT</cmt>
  <desc>2m FM+DSTAR/DV repeater

QTH: BERWICK ON TWEED
Frequency: TX: 145.7000 MHz, RX: 145.1000 MHz
Activation: nośną
More information: https://przemienniki.net/przemienniki/2m/GB3BT</desc>
 </wpt>
 <wpt lat="51.730000" lon="-0.430000">
  <name>GB3BV</name>
  <cmt>70cm FM+DSTAR/DV repeater

QTH: 
Frequency: TX: 433.0250 MHz, RX: 434.6250 MHz
Activation: nośną
More information: https://przemienniki.net/przemienniki/70cm/GB3BV</cmt>
  <desc>70cm FM+DSTAR/DV repeater

QTH: 
Frequency: TX: 433.0250 MHz, RX: 434.6250 MHz
Activation: nośną
More information: https://przemienniki.net/przemienniki/70cm/GB3BV</desc>
 </wpt>
 <wpt lat="0.000000" lon="0.000000">
  <name>GB3BX</name>
  <cmt>2m DSTAR/DV repeater

QTH: 
Frequency: TX: 145.6750 MHz, RX: 145.0750 MHz
Activation: b.d.
More information: https://przemienniki.net/przemienniki/2m/GB3BX</cmt>
  <desc>2m DSTAR/DV repeater

QTH: 
Frequency: TX: 145.6750 MHz, RX: 145.0750 MHz
Activation: b.d.
More information: https://przemienniki.net/przemienniki/2m/GB3BX</desc>
 </wpt>
 <wpt lat="53.810000" lon="-3.030000">
  <name>GB3BY</name>
  <cmt>70cm FM+DSTAR/DV repeater

QTH: 
Frequency: TX: 430.9750 MHz, RX: 438.5750 MHz
Activation: nośną
More information: https://przemienniki.net/przemienniki/70cm/GB3BY</cmt>
  <desc>70cm FM+DSTAR/DV repeater

QTH: 
Frequency: TX: 430.9750 MHz, RX: 438.5750 MHz
Activation: nośną
More information: https://przemienniki.net/przemienniki/70cm/GB3BY</desc>
 </wpt>
 <wpt lat="51.930000" lon="0.530000">
  <name>GB3BZ</name>
  <cmt>70cm FM+DSTAR/DV repeater

QTH: 
Frequency: TX: 430.8500 MHz, RX: 438.4500 MHz
Activation: nośną
More information: https://przemienniki.net/przemienniki/70cm/GB3BZ</cmt>
  <desc>70cm FM+DSTAR/DV repeater

QTH: 
Frequency: TX: 430.8500 MHz, RX: 438.4500 MHz
Activation: nośną
More information: https://przemienniki.net/przemienniki/70cm/GB3BZ</desc>
 </wpt>
 <wpt lat="54.820000" lon="-2.830000">
  <name>GB3CA</name>
  <cmt>70cm FM+DSTAR/DV repeater

Network: Echolink
QTH: CARLISLE
Frequency: TX: 433.3250 MHz, RX: 434.9250 MHz
Activation: nośną
More information: https://przemienniki.net/przemienniki/70cm/GB3CA</cmt>
  <desc>70cm FM+DSTAR/DV repeater

Network: Echolink
QTH: CARLISLE
Frequency: TX: 433.3250 MHz, RX: 434.9250 MHz
Activation: nośną
More information: https://przemienniki.net/przemienniki/70cm/GB3CA</desc>
 </wpt>
 <wpt lat="52.460000" lon="-1.890000">
  <name>GB3CB</name>
  <cmt>70cm FM+DSTAR/DV repeater

QTH: BIRMINGHAM
Frequency: TX: 433.3500 MHz, RX: 434.9500 MHz
Activation: nośną
More information: https://przemienniki.net/przemienniki/70cm/GB3CB</cmt>
  <desc>70cm FM+DSTAR/DV repeater

QTH: BIRMINGHAM
Frequency: TX: 433.3500 MHz, RX: 434.9500 MHz
Activation: nośną
More information: https://przemienniki.net/przemienniki/70cm/GB3CB</desc>
 </wpt>
 <wpt lat="0.000000" lon="0.000000">
  <name>GB3CC</name>
  <cmt>70cm FM+DSTAR/DV repeater

QTH: 
Frequency: TX: 430.9625 MHz, RX: 438.5625 MHz
Activation: nośną
More information: https://przemienniki.net/przemienniki/70cm/GB3CC</cmt>
  <desc>70cm FM+DSTAR/DV repeater

QTH: 
Frequency: TX: 430.9625 MHz, RX: 438.5625 MHz
Activation: nośną
More information: https://przemienniki.net/przemienniki/70cm/GB3CC</desc>
 </wpt>
 <wpt lat="54.740000" lon="-1.750000">
  <name>GB3CD</name>
  <cmt>2m FM+DSTAR/DV repeater

QTH: 
Frequency: TX: 145.6875 MHz, RX: 145.0875 MHz
Activation: nośną
More information: https://przemienniki.net/przemienniki/2m/GB3CD</cmt>
  <desc>2m FM+DSTAR/DV repeater

QTH: 
Frequency: TX: 145.6875 MHz, RX: 145.0875 MHz
Activation: nośną
More information: https://przemienniki.net/przemienniki/2m/GB3CD</desc>
 </wpt>
 <wpt lat="51.910000" lon="0.900000">
  <name>GB3CE</name>
  <cmt>70cm FM+DSTAR/DV repeater

QTH: COLCHESTER
Frequency: TX: 433.3500 MHz, RX: 434.9500 MHz
Activation: nośną
More information: https://przemienniki.net/przemienniki/70cm/GB3CE</cmt>
  <desc>70cm FM+DSTAR/DV repeater

QTH: COLCHESTER
Frequency: TX: 433.3500 MHz, RX: 434.9500 MHz
Activation: nośną
More information: https://przemienniki.net/przemienniki/70cm/GB3CE</desc>
 </wpt>
 <wpt lat="52.690000" lon="-1.280000">
  <name>GB3CF</name>
  <cmt>2m FM+DSTAR/DV repeater

QTH: 
Frequency: TX: 145.6000 MHz, RX: 145.0000 MHz
Activation: nośną
More information: https://przemienniki.net/przemienniki/2m/GB3CF</cmt>
  <desc>2m FM+DSTAR/DV repeater

QTH: 
Frequency: TX: 145.6000 MHz, RX: 145.0000 MHz
Activation: nośną
More information: https://przemienniki.net/przemienniki/2m/GB3CF</desc>
 </wpt>
 <wpt lat="51.870000" lon="-2.180000">
  <name>GB3CG</name>
  <cmt>2m FM+DSTAR/DV repeater

QTH: 
Frequency: TX: 145.7250 MHz, RX: 145.1250 MHz
Activation: nośną
More information: https://przemienniki.net/przemienniki/2m/GB3CG</cmt>
  <desc>2m FM+DSTAR/DV repeater

QTH: 
Frequency: TX: 145.7250 MHz, RX: 145.1250 MHz
Activation: nośną
More information: https://przemienniki.net/przemienniki/2m/GB3CG</desc>
 </wpt>
 <wpt lat="50.510000" lon="-4.440000">
  <name>GB3CH</name>
  <cmt>70cm FM+DSTAR/DV repeater

QTH: 
Frequency: TX: 430.8750 MHz, RX: 438.4750 MHz
Activation: nośną
More information: https://przemienniki.net/przemienniki/70cm/GB3CH</cmt>
  <desc>70cm FM+DSTAR/DV repeater

QTH: 
Frequency: TX: 430.8750 MHz, RX: 438.4750 MHz
Activation: nośną
More information: https://przemienniki.net/przemienniki/70cm/GB3CH</desc>
 </wpt>
 <wpt lat="52.510000" lon="-0.680000">
  <name>GB3CI</name>
  <cmt>70cm FM+DSTAR/DV repeater

QTH: CORBY
Frequency: TX: 430.8250 MHz, RX: 438.4250 MHz
Activation: nośną
More information: https://przemienniki.net/przemienniki/70cm/GB3CI</cmt>
  <desc>70cm FM+DSTAR/DV repeater

QTH: CORBY
Frequency: TX: 430.8250 MHz, RX: 438.4250 MHz
Activation: nośną
More information: https://przemienniki.net/przemienniki/70cm/GB3CI</desc>
 </wpt>
 <wpt lat="52.240000" lon="-0.890000">
  <name>GB3CJ</name>
  <cmt>10m FM+DSTAR/DV repeater

QTH: NORTHAMPTON
Frequency: TX: 29.640 MHz, RX: 29.540 MHz
Activation: nośną
More information: https://przemienniki.net/przemienniki/10m/GB3CJ</cmt>
  <desc>10m FM+DSTAR/DV repeater

QTH: NORTHAMPTON
Frequency: TX: 29.640 MHz, RX: 29.540 MHz
Activation: nośną
More information: https://przemienniki.net/przemienniki/10m/GB3CJ</desc>
 </wpt>
 <wpt lat="51.230000" lon="0.790000">
  <name>GB3CK</name>
  <cmt>70cm FM+DSTAR/DV repeater

QTH: CHARING KENT
Frequency: TX: 433.0000 MHz, RX: 434.6000 MHz
Activation: nośną
More information: https://przemienniki.net/przemienniki/70cm/GB3CK</cmt>
  <desc>70cm FM+DSTAR/DV repeater

QTH: CHARING KENT
Frequency: TX: 433.0000 MHz, RX: 434.6000 MHz
Activation: nośną
More information: https://przemienniki.net/przemienniki/70cm/GB3CK</desc>
 </wpt>
 <wpt lat="51.810000" lon="1.210000">
  <name>GB3CL</name>
  <cmt>70cm FM+DSTAR/DV repeater

QTH: CLACTON
Frequency: TX: 433.2250 MHz, RX: 434.8250 MHz
Activation: nośną
More information: https://przemienniki.net/przemienniki/70cm/GB3CL</cmt>
  <desc>70cm FM+DSTAR/DV repeater

QTH: CLACTON
Frequency: TX: 433.2250 MHz, RX: 434.8250 MHz
Activation: nośną
More information: https://przemienniki.net/przemienniki/70cm/GB3CL</desc>
 </wpt>
 <wpt lat="51.920000" lon="-4.220000">
  <name>GB3CM</name>
  <cmt>70cm FM+DSTAR/DV repeater

QTH: 
Frequency: TX: 430.8625 MHz, RX: 438.4625 MHz
Activation: nośną
More information: https://przemienniki.net/przemienniki/70cm/GB3CM</cmt>
  <desc>70cm FM+DSTAR/DV repeater

QTH: 
Frequency: TX: 430.8625 MHz, RX: 438.4625 MHz
Activation: nośną
More information: https://przemienniki.net/przemienniki/70cm/GB3CM</desc>
 </wpt>
 <wpt lat="51.990000" lon="-4.400000">
  <name>GB3CN</name>
  <cmt>2m FM+DSTAR/DV repeater

QTH: 
Frequency: TX: 145.6875 MHz, RX: 145.0875 MHz
Activation: nośną
More information: https://przemienniki.net/przemienniki/2m/GB3CN</cmt>
  <desc>2m FM+DSTAR/DV repeater

QTH: 
Frequency: TX: 145.6875 MHz, RX: 145.0875 MHz
Activation: nośną
More information: https://przemienniki.net/przemienniki/2m/GB3CN</desc>
 </wpt>
 <wpt lat="52.510000" lon="-0.680000">
  <name>GB3CO</name>
  <cmt>2m FM+DSTAR/DV repeater

QTH: CORBY
Frequency: TX: 145.6625 MHz, RX: 145.0625 MHz
Activation: nośną
More information: https://przemienniki.net/przemienniki/2m/GB3CO</cmt>
  <desc>2m FM+DSTAR/DV repeater

QTH: CORBY
Frequency: TX: 145.6625 MHz, RX: 145.0625 MHz
Activation: nośną
More information: https://przemienniki.net/przemienniki/2m/GB3CO</desc>
 </wpt>
 <wpt lat="54.270000" lon="-7.270000">
  <name>GB3CP</name>
  <cmt>2m FM+DSTAR/DV repeater

QTH: FERMANAGH
Frequency: TX: 145.7375 MHz, RX: 145.1375 MHz
Activation: nośną
More information: https://przemienniki.net/przemienniki/2m/GB3CP</cmt>
  <desc>2m FM+DSTAR/DV repeater

QTH: FERMANAGH
Frequency: TX: 145.7375 MHz, RX: 145.1375 MHz
Activation: nośną
More information: https://przemienniki.net/przemienniki/2m/GB3CP</desc>
 </wpt>
 <wpt lat="53.104167" lon="-3.041667">
  <name>GB3CR</name>
  <cmt>70cm FM+DSTAR/DV repeater

QTH: CAERGWRLE
Frequency: TX: 433.1500 MHz, RX: 434.7500 MHz
Activation: nośną
More information: https://przemienniki.net/przemienniki/70cm/GB3CR</cmt>
  <desc>70cm FM+DSTAR/DV repeater

QTH: CAERGWRLE
Frequency: TX: 433.1500 MHz, RX: 434.7500 MHz
Activation: nośną
More information: https://przemienniki.net/przemienniki/70cm/GB3CR</desc>
 </wpt>
 <wpt lat="55.854167" lon="-3.958333">
  <name>GB3CS</name>
  <cmt>2m FM+DSTAR/DV repeater

QTH: MOTHERWELL
Frequency: TX: 145.7500 MHz, RX: 145.1500 MHz
Activation: nośną
More information: https://przemienniki.net/przemienniki/2m/GB3CS</cmt>
  <desc>2m FM+DSTAR/DV repeater

QTH: MOTHERWELL
Frequency: TX: 145.7500 MHz, RX: 145.1500 MHz
Activation: nośną
More information: https://przemienniki.net/przemienniki/2m/GB3CS</desc>
 </wpt>
 <wpt lat="52.420000" lon="-1.480000">
  <name>GB3CV</name>
  <cmt>70cm FM+DSTAR/DV repeater

QTH: 
Frequency: TX: 430.8125 MHz, RX: 438.4125 MHz
Activation: nośną
More information: https://przemienniki.net/przemienniki/70cm/GB3CV</cmt>
  <desc>70cm FM+DSTAR/DV repeater

QTH: 
Frequency: TX: 430.8125 MHz, RX: 438.4125 MHz
Activation: nośną
More information: https://przemienniki.net/przemienniki/70cm/GB3CV</desc>
 </wpt>
 <wpt lat="52.480000" lon="-3.400000">
  <name>GB3CW</name>
  <cmt>70cm FM+DSTAR/DV repeater

QTH: NEWTOWN POWYS
Frequency: TX: 433.1000 MHz, RX: 434.7000 MHz
Activation: nośną
More information: https://przemienniki.net/przemienniki/70cm/GB3CW</cmt>
  <desc>70cm FM+DSTAR/DV repeater

QTH: NEWTOWN POWYS
Frequency: TX: 433.1000 MHz, RX: 434.7000 MHz
Activation: nośną
More information: https://przemienniki.net/przemienniki/70cm/GB3CW</desc>
 </wpt>
 <wpt lat="53.920000" lon="-1.150000">
  <name>GB3CY</name>
  <cmt>70cm FM+DSTAR/DV repeater

QTH: 
Frequency: TX: 430.8625 MHz, RX: 438.4625 MHz
Activation: nośną
More information: https://przemienniki.net/przemienniki/70cm/GB3CY</cmt>
  <desc>70cm FM+DSTAR/DV repeater

QTH: 
Frequency: TX: 430.8625 MHz, RX: 438.4625 MHz
Activation: nośną
More information: https://przemienniki.net/przemienniki/70cm/GB3CY</desc>
 </wpt>
 <wpt lat="51.720000" lon="0.570000">
  <name>GB3DA</name>
  <cmt>2m FM+DSTAR/DV repeater

QTH: 
Frequency: TX: 145.7250 MHz, RX: 145.1250 MHz
Activation: nośną
More information: https://przemienniki.net/przemienniki/2m/GB3DA</cmt>
  <desc>2m FM+DSTAR/DV repeater

QTH: 
Frequency: TX: 145.7250 MHz, RX: 145.1250 MHz
Activation: nośną
More information: https://przemienniki.net/przemienniki/2m/GB3DA</desc>
 </wpt>
 <wpt lat="51.720000" lon="0.600000">
  <name>GB3DB</name>
  <cmt>6m FM+DSTAR/DV repeater

QTH: 
Frequency: TX: 50.770 MHz, RX: 51.270 MHz
Activation: nośną
More information: https://przemienniki.net/przemienniki/6m/GB3DB</cmt>
  <desc>6m FM+DSTAR/DV repeater

QTH: 
Frequency: TX: 50.770 MHz, RX: 51.270 MHz
Activation: nośną
More information: https://przemienniki.net/przemienniki/6m/GB3DB</desc>
 </wpt>
 <wpt lat="52.940000" lon="-1.440000">
  <name>GB3DC</name>
  <cmt>2m FM+DSTAR/DV repeater

Network: Echolink
QTH: DERBY
Frequency: TX: 145.6875 MHz, RX: 145.0875 MHz
Activation: nośną
More information: https://przemienniki.net/przemienniki/2m/GB3DC</cmt>
  <desc>2m FM+DSTAR/DV repeater

Network: Echolink
QTH: DERBY
Frequency: TX: 145.6875 MHz, RX: 145.0875 MHz
Activation: nośną
More information: https://przemienniki.net/przemienniki/2m/GB3DC</desc>
 </wpt>
 <wpt lat="56.500000" lon="-2.970000">
  <name>GB3DD</name>
  <cmt>70cm FM+DSTAR/DV repeater

QTH: 
Frequency: TX: 433.2500 MHz, RX: 434.8500 MHz
Activation: nośną
More information: https://przemienniki.net/przemienniki/70cm/GB3DD</cmt>
  <desc>70cm FM+DSTAR/DV repeater

QTH: 
Frequency: TX: 433.2500 MHz, RX: 434.8500 MHz
Activation: nośną
More information: https://przemienniki.net/przemienniki/70cm/GB3DD</desc>
 </wpt>
 <wpt lat="52.240000" lon="1.100000">
  <name>GB3DE</name>
  <cmt>70cm FM+DSTAR/DV repeater

QTH: IPSWICH
Frequency: TX: 433.1750 MHz, RX: 434.7750 MHz
Activation: nośną
More information: https://przemienniki.net/przemienniki/70cm/GB3DE</cmt>
  <desc>70cm FM+DSTAR/DV repeater

QTH: IPSWICH
Frequency: TX: 433.1750 MHz, RX: 434.7750 MHz
Activation: nośną
More information: https://przemienniki.net/przemienniki/70cm/GB3DE</desc>
 </wpt>
 <wpt lat="54.890000" lon="-4.300000">
  <name>GB3DG</name>
  <cmt>2m FM+DSTAR/DV repeater

QTH: 
Frequency: TX: 145.7750 MHz, RX: 145.1750 MHz
Activation: nośną
More information: https://przemienniki.net/przemienniki/2m/GB3DG</cmt>
  <desc>2m FM+DSTAR/DV repeater

QTH: 
Frequency: TX: 145.7750 MHz, RX: 145.1750 MHz
Activation: nośną
More information: https://przemienniki.net/przemienniki/2m/GB3DG</desc>
 </wpt>
 <wpt lat="51.570000" lon="-1.310000">
  <name>GB3DI</name>
  <cmt>70cm FM+DSTAR/DV repeater

QTH: DIDCOT
Frequency: TX: 433.1500 MHz, RX: 434.7500 MHz
Activation: nośną
More information: https://przemienniki.net/przemienniki/70cm/GB3DI</cmt>
  <desc>70cm FM+DSTAR/DV repeater

QTH: DIDCOT
Frequency: TX: 433.1500 MHz, RX: 434.7500 MHz
Activation: nośną
More information: https://przemienniki.net/przemienniki/70cm/GB3DI</desc>
 </wpt>
 <wpt lat="55.970000" lon="-4.550000">
  <name>GB3DM</name>
  <cmt>70cm FM+DSTAR/DV repeater

QTH: 
Frequency: TX: 430.9250 MHz, RX: 438.5250 MHz
Activation: nośną
More information: https://przemienniki.net/przemienniki/70cm/GB3DM</cmt>
  <desc>70cm FM+DSTAR/DV repeater

QTH: 
Frequency: TX: 430.9250 MHz, RX: 438.5250 MHz
Activation: nośną
More information: https://przemienniki.net/przemienniki/70cm/GB3DM</desc>
 </wpt>
 <wpt lat="50.920000" lon="-4.260000">
  <name>GB3DN</name>
  <cmt>2m FM+DSTAR/DV repeater

QTH: STIBB CROSS
Frequency: TX: 145.6375 MHz, RX: 145.0375 MHz
Activation: nośną
More information: https://przemienniki.net/przemienniki/2m/GB3DN</cmt>
  <desc>2m FM+DSTAR/DV repeater

QTH: STIBB CROSS
Frequency: TX: 145.6375 MHz, RX: 145.0375 MHz
Activation: nośną
More information: https://przemienniki.net/przemienniki/2m/GB3DN</desc>
 </wpt>
 <wpt lat="50.340000" lon="-4.510000">
  <name>GB3DQ</name>
  <cmt>70cm FM+DSTAR/DV repeater

Network: Echolink
QTH: POLPERRO
Frequency: TX: 430.9750 MHz, RX: 438.5750 MHz
Activation: nośną
More information: https://przemienniki.net/przemienniki/70cm/GB3DQ</cmt>
  <desc>70cm FM+DSTAR/DV repeater

Network: Echolink
QTH: POLPERRO
Frequency: TX: 430.9750 MHz, RX: 438.5750 MHz
Activation: nośną
More information: https://przemienniki.net/przemienniki/70cm/GB3DQ</desc>
 </wpt>
 <wpt lat="50.729167" lon="-2.625000">
  <name>GB3DR</name>
  <cmt>2m FM+DSTAR/DV repeater

QTH: DORCHESTER
Frequency: TX: 145.7375 MHz, RX: 145.1375 MHz
Activation: nośną
More information: https://przemienniki.net/przemienniki/2m/GB3DR</cmt>
  <desc>2m FM+DSTAR/DV repeater

QTH: DORCHESTER
Frequency: TX: 145.7375 MHz, RX: 145.1375 MHz
Activation: nośną
More information: https://przemienniki.net/przemienniki/2m/GB3DR</desc>
 </wpt>
 <wpt lat="53.300000" lon="-1.130000">
  <name>GB3DS</name>
  <cmt>70cm FM+DSTAR/DV repeater

QTH: WORKSOP
Frequency: TX: 433.3250 MHz, RX: 434.9250 MHz
Activation: nośną
More information: https://przemienniki.net/przemienniki/70cm/GB3DS</cmt>
  <desc>70cm FM+DSTAR/DV repeater

QTH: WORKSOP
Frequency: TX: 433.3250 MHz, RX: 434.9250 MHz
Activation: nośną
More information: https://przemienniki.net/przemienniki/70cm/GB3DS</desc>
 </wpt>
 <wpt lat="50.870000" lon="-2.120000">
  <name>GB3DT</name>
  <cmt>70cm FM+DSTAR/DV repeater

QTH: 
Frequency: TX: 433.0000 MHz, RX: 434.6000 MHz
Activation: nośną
More information: https://przemienniki.net/przemienniki/70cm/GB3DT</cmt>
  <desc>70cm FM+DSTAR/DV repeater

QTH: 
Frequency: TX: 433.0000 MHz, RX: 434.6000 MHz
Activation: nośną
More information: https://przemienniki.net/przemienniki/70cm/GB3DT</desc>
 </wpt>
 <wpt lat="0.000000" lon="0.000000">
  <name>GB3DU</name>
  <cmt>2m FM+DSTAR/DV repeater

QTH: 
Frequency: TX: 145.7625 MHz, RX: 145.1625 MHz
Activation: nośną
More information: https://przemienniki.net/przemienniki/2m/GB3DU</cmt>
  <desc>2m FM+DSTAR/DV repeater

QTH: 
Frequency: TX: 145.7625 MHz, RX: 145.1625 MHz
Activation: nośną
More information: https://przemienniki.net/przemienniki/2m/GB3DU</desc>
 </wpt>
 <wpt lat="53.420000" lon="-1.190000">
  <name>GB3DV</name>
  <cmt>70cm FM+DSTAR/DV repeater

Network: Echolink
QTH: MALTBY
Frequency: TX: 433.0250 MHz, RX: 434.6250 MHz
Activation: nośną
More information: https://przemienniki.net/przemienniki/70cm/GB3DV</cmt>
  <desc>70cm FM+DSTAR/DV repeater

Network: Echolink
QTH: MALTBY
Frequency: TX: 433.0250 MHz, RX: 434.6250 MHz
Activation: nośną
More information: https://przemienniki.net/przemienniki/70cm/GB3DV</desc>
 </wpt>
 <wpt lat="52.810000" lon="-4.100000">
  <name>GB3DW</name>
  <cmt>2m FM+DSTAR/DV repeater

QTH: 
Frequency: TX: 145.6625 MHz, RX: 145.0625 MHz
Activation: nośną
More information: https://przemienniki.net/przemienniki/2m/GB3DW</cmt>
  <desc>2m FM+DSTAR/DV repeater

QTH: 
Frequency: TX: 145.6625 MHz, RX: 145.0625 MHz
Activation: nośną
More information: https://przemienniki.net/przemienniki/2m/GB3DW</desc>
 </wpt>
 <wpt lat="55.010000" lon="-7.360000">
  <name>GB3DX</name>
  <cmt>70cm FM+DSTAR/DV repeater

Network: Echolink
QTH: DERRY/LONDONDERRY
Frequency: TX: 433.3000 MHz, RX: 434.9000 MHz
Activation: nośną
More information: https://przemienniki.net/przemienniki/70cm/GB3DX</cmt>
  <desc>70cm FM+DSTAR/DV repeater

Network: Echolink
QTH: DERRY/LONDONDERRY
Frequency: TX: 433.3000 MHz, RX: 434.9000 MHz
Activation: nośną
More information: https://przemienniki.net/przemienniki/70cm/GB3DX</desc>
 </wpt>
 <wpt lat="53.060000" lon="-1.550000">
  <name>GB3DY</name>
  <cmt>70cm FM+DSTAR/DV repeater

QTH: WIRKSWORTH
Frequency: TX: 433.2500 MHz, RX: 434.8500 MHz
Activation: nośną
More information: https://przemienniki.net/przemienniki/70cm/GB3DY</cmt>
  <desc>70cm FM+DSTAR/DV repeater

QTH: WIRKSWORTH
Frequency: TX: 433.2500 MHz, RX: 434.8500 MHz
Activation: nośną
More information: https://przemienniki.net/przemienniki/70cm/GB3DY</desc>
 </wpt>