<?xml version="1.0" encoding="UTF-8"?>
<repeaters update="2026-07-06 15:18:25" version="0.1">
 <repeater callsign="ER1OVR" country="PL" region="1" frequency="4389000" band="70cm" ctcss="103.5" tx_power="5" city="Chisinau" locator="" type="FM" status="OPERATIONAL" latitude="46.991749" longitude="28.820958" opening="CTCSS" echolink="631200" URL="https://przemienniki.net/przemienniki/70cm/ER1OVR"/>
 <repeater callsign="LX0LU" country="PL" region="0" frequency="1457000" band="2m" ctcss="0" tx_power="25" city="" locator="JN39CR" type="FM" status="OPERATIONAL" latitude="49.711605" longitude="6.193112" opening="1750HZ" echolink="" URL="https://przemienniki.net/przemienniki/2m/LX0LU"/>
 <repeater callsign="SR0CK" country="PL" region="0" frequency="4390625" band="70cm" ctcss="77" tx_power="15" city="Serock" locator="KO02MM" type="FM" status="OPERATIONAL" latitude="52.514520" longitude="21.068521" opening="CTCSS" echolink="" URL="https://przemienniki.net/przemienniki/70cm/SR0CK"/>
 <repeater callsign="SR0DN" country="PL" region="0" frequency="4395125" band="70cm" ctcss="77" tx_power="15" city="Wola Rebkowska" locator="KO01SV" type="FM" status="PLANED" latitude="51.916059" longitude="21.550892" opening="CTCSS" echolink="" URL="https://przemienniki.net/przemienniki/70cm/SR0DN"/>
 <repeater callsign="SR0DZ" country="PL" region="0" frequency="4395375" band="70cm" ctcss="0" tx_power="3" city="Serock" locator="KO02MM" type="FM" status="OPERATIONAL" latitude="52.500185" longitude="21.060421" opening="CARRIER" echolink="" URL="https://przemienniki.net/przemienniki/70cm/SR0DZ"/>
 <repeater callsign="SR0GOL" country="PL" region="0" frequency="4391375" band="70cm" ctcss="0" tx_power="" city="" locator="KO00GE" type="FM" status="OPERATIONAL" latitude="50.177279" longitude="20.570335" opening="CARRIER" echolink="" URL="https://przemienniki.net/przemienniki/70cm/SR0GOL"/>
 <repeater callsign="SR0LU" country="PL" region="0" frequency="4383500" band="70cm" ctcss="67" tx_power="15" city="Lubawa" locator="JO93VM" type="FM" status="PLANED" latitude="0.000000" longitude="0.000000" opening="CTCSS" echolink="" URL="https://przemienniki.net/przemienniki/70cm/SR0LU"/>
 <repeater callsign="SR0MI" country="PL" region="0" frequency="4383125" band="70cm" ctcss="67" tx_power="15" city="Miłomłyn" locator="JO93VS" type="FM" status="PLANED" latitude="0.000000" longitude="0.000000" opening="CTCSS" echolink="" URL="https://przemienniki.net/przemienniki/70cm/SR0MI"/>
 <repeater callsign="SR0ON" country="PL" region="0" frequency="4384875" band="70cm" ctcss="67" tx_power="15" city="Olsztyn" locator="KO03FS" type="FM" status="PLANED" latitude="0.000000" longitude="0.000000" opening="CTCSS" echolink="" URL="https://przemienniki.net/przemienniki/70cm/SR0ON"/>
 <repeater callsign="SR0WW" country="PL" region="0" frequency="4388250" band="70cm" ctcss="82.5" tx_power="10" city="Wolin" locator="JO73HU" type="FM" status="OPERATIONAL" latitude="53.844838" longitude="14.615891" opening="CTCSS" echolink="" URL="https://przemienniki.net/przemienniki/70cm/SR0WW"/>
 <repeater callsign="SR1ASR" country="PL" region="1" frequency="4386250" band="70cm" ctcss="0" tx_power="10" city="Szczecin" locator="JO73GK" type="DMR" status="OPERATIONAL" latitude="53.456806" longitude="14.547729" opening="CARRIER" echolink="" URL="https://przemienniki.net/przemienniki/70cm/SR1ASR"/>
 <repeater callsign="SR1BAR" country="PL" region="1" frequency="4395500" band="70cm" ctcss="82.5" tx_power="" city="Barlinek" locator="JO72OX" type="FM" status="OPERATIONAL" latitude="52.973367" longitude="15.230974" opening="CTCSS" echolink="" URL="https://przemienniki.net/przemienniki/70cm/SR1BAR"/>
 <repeater callsign="SR1CH" country="PL" region="1" frequency="1457875" band="" ctcss="82.5" tx_power="10" city="Czartoryja" locator="JO72FW" type="FM" status="OPERATIONAL" latitude="0.000000" longitude="0.000000" opening="CTCSS" echolink="" URL="https://przemienniki.net/przemienniki//SR1CH"/>
 <repeater callsign="SR1CZ" country="PL" region="1" frequency="4387125" band="70cm" ctcss="82.5" tx_power="10" city="Czaplinek" locator="JO83CN" type="FM" status="TESTING" latitude="53.547541" longitude="16.233773" opening="CTCSS" echolink="" URL="https://przemienniki.net/przemienniki/70cm/SR1CZ"/>
 <repeater callsign="SR1D" country="PL" region="1" frequency="1456125" band="2m" ctcss="77" tx_power="10" city="Debno" locator="JO72IR" type="FM" status="OFF" latitude="52.737737" longitude="14.705231" opening="1750HZ+CTSS" echolink="" URL="https://przemienniki.net/przemienniki/2m/SR1D"/>
 <repeater callsign="SR1DMR" country="PL" region="1" frequency="1457500" band="2m" ctcss="0" tx_power="15" city="Polanow" locator="JO84IC" type="DMR" status="OPERATIONAL" latitude="54.124488" longitude="16.685599" opening="CARRIER" echolink="" URL="https://przemienniki.net/przemienniki/2m/SR1DMR"/>
 <repeater callsign="SR1G" country="PL" region="1" frequency="1456250" band="2m" ctcss="88.5" tx_power="10" city="Kolobrzeg" locator="JO74SE" type="FM" status="OPERATIONAL" latitude="54.178284" longitude="15.553207" opening="CTCSS" echolink="466022" URL="https://przemienniki.net/przemienniki/2m/SR1G"/>
 <repeater callsign="SR1GL" country="PL" region="1" frequency="1452800" band="2m" ctcss="82.5" tx_power="" city="Goleniow" locator="JO73JN" type="FM" status="OPERATIONAL" latitude="53.562983" longitude="14.817566" opening="CTCSS" echolink="" URL="https://przemienniki.net/przemienniki/2m/SR1GL"/>
 <repeater callsign="SR1K" country="PL" region="1" frequency="1457000" band="2m" ctcss="82.5" tx_power="" city="Stargard" locator="JO73MI" type="FM" status="OPERATIONAL" latitude="53.339500" longitude="15.009000" opening="1750HZ+CTSS" echolink="" URL="https://przemienniki.net/przemienniki/2m/SR1K"/>
 <repeater callsign="SR1KG" country="PL" region="1" frequency="4392250" band="70cm" ctcss="0" tx_power="10" city="Kolobrzeg" locator="JO74SE" type="APCO-25" status="OPERATIONAL" latitude="54.178284" longitude="15.553207" opening="CARRIER" echolink="" URL="https://przemienniki.net/przemienniki/70cm/SR1KG"/>
 <repeater callsign="SR1KN" country="PL" region="1" frequency="4386750" band="70cm" ctcss="0" tx_power="9" city="Koszalin Gora Chelmska - wieza widokowa" locator="JO84CE" type="FM" status="OPERATIONAL" latitude="54.207675" longitude="16.225714" opening="CARRIER" echolink="" URL="https://przemienniki.net/przemienniki/70cm/SR1KN"/>
 <repeater callsign="SR1LS" country="PL" region="1" frequency="12983000" band="23cm" ctcss="0" tx_power="5" city="Szczecin" locator="JO73GK" type="FM" status="OPERATIONAL" latitude="53.435441" longitude="14.539579" opening="1750HZ" echolink="" URL="https://przemienniki.net/przemienniki/23cm/SR1LS"/>
 <repeater callsign="SR1N" country="PL" region="1" frequency="1456750" band="2m" ctcss="0" tx_power="10" city="Koszalin" locator="JO84CE" type="FM" status="OPERATIONAL" latitude="54.202580" longitude="16.177512" opening="1750HZ" echolink="" URL="https://przemienniki.net/przemienniki/2m/SR1N"/>
 <repeater callsign="SR1P" country="PL" region="1" frequency="1457250" band="2m" ctcss="0" tx_power="15" city="Kopnica" locator="JO84FL" type="FM" status="OPERATIONAL" latitude="54.459056" longitude="16.484065" opening="CARRIER" echolink="517418" URL="https://przemienniki.net/przemienniki/2m/SR1P"/>
 <repeater callsign="SR1RE" country="PL" region="1" frequency="4391500" band="70cm" ctcss="88.5" tx_power="10" city="Resko" locator="JO73QS" type="FM" status="OPERATIONAL" latitude="53.772662" longitude="15.406737" opening="CTCSS" echolink="" URL="https://przemienniki.net/przemienniki/70cm/SR1RE"/>
 <repeater callsign="SR1RG" country="PL" region="1" frequency="4388750" band="70cm" ctcss="82.5" tx_power="10" city="Trzebiatow" locator="JO74PB" type="FM" status="OPERATIONAL" latitude="54.053464" longitude="15.256868" opening="CTCSS" echolink="" URL="https://przemienniki.net/przemienniki/70cm/SR1RG"/>
 <repeater callsign="SR1S" country="PL" region="1" frequency="1457700" band="2m" ctcss="82.5" tx_power="1" city="Szczecin" locator="JO73GJ" type="FM" status="PLANED" latitude="53.403960" longitude="14.522150" opening="CTCSS" echolink="" URL="https://przemienniki.net/przemienniki/2m/SR1S"/>
 <repeater callsign="SR1SZ" country="PL" region="1" frequency="4390750" band="70cm" ctcss="82.5" tx_power="20" city="Szczecin" locator="JO73GL" type="FM" status="OPERATIONAL" latitude="53.458827" longitude="14.535034" opening="CTCSS" echolink="" URL="https://przemienniki.net/przemienniki/70cm/SR1SZ"/>
 <repeater callsign="SR1TET" country="PL" region="1" frequency="4316250" band="70cm" ctcss="0" tx_power="" city="Stargard" locator="JO73MI" type="C4FM/Fusion" status="OPERATIONAL" latitude="53.342500" longitude="15.025200" opening="CARRIER" echolink="" URL="https://przemienniki.net/przemienniki/70cm/SR1TET"/>
 <repeater callsign="SR1TS" country="PL" region="1" frequency="29670" band="10m" ctcss="82.5" tx_power="10" city="Szczecin" locator="JO73GL" type="FM" status="OFF" latitude="53.458827" longitude="14.535034" opening="CTCSS" echolink="" URL="https://przemienniki.net/przemienniki/10m/SR1TS"/>
 <repeater callsign="SR1TSZ" country="PL" region="1" frequency="4300750" band="70cm" ctcss="0" tx_power="" city="Szczecin" locator="JO73GL" type="C4FM/Fusion" status="OPERATIONAL" latitude="53.474700" longitude="14.547200" opening="CARRIER" echolink="" URL="https://przemienniki.net/przemienniki/70cm/SR1TSZ"/>
 <repeater callsign="SR1UVH" country="PL" region="1" frequency="4390250" band="70cm" ctcss="0" tx_power="10" city="Swinoujscie" locator="JO73DV" type="DSTAR" status="OPERATIONAL" latitude="53.909623" longitude="14.254937" opening="CARRIER" echolink="" URL="https://przemienniki.net/przemienniki/70cm/SR1UVH"/>
 <repeater callsign="SR1UVS" country="PL" region="1" frequency="4394125" band="70cm" ctcss="0" tx_power="15" city="Szczecin" locator="JO73GK" type="DSTAR" status="OPERATIONAL" latitude="53.435441" longitude="14.539579" opening="CARRIER" echolink="" URL="https://przemienniki.net/przemienniki/70cm/SR1UVS"/>
 <repeater callsign="SR1UVX" country="PL" region="1" frequency="4393875" band="70cm" ctcss="0" tx_power="" city="Stargard" locator="JO73MI" type="DMR" status="OPERATIONAL" latitude="53.342431" longitude="15.024889" opening="CARRIER" echolink="" URL="https://przemienniki.net/przemienniki/70cm/SR1UVX"/>
 <repeater callsign="SR1W" country="PL" region="1" frequency="1456125" band="2m" ctcss="82.5" tx_power="15" city="Świnoujście" locator="JO73DV" type="FM" status="OPERATIONAL" latitude="53.909511" longitude="14.254612" opening="OTHER" echolink="" URL="https://przemienniki.net/przemienniki/2m/SR1W"/>
 <repeater callsign="SR1W" country="PL" region="1" frequency="1456125" band="2m" ctcss="0" tx_power="15" city="Swinoujscie" locator="JO73DV" type="APCO-25" status="OPERATIONAL" latitude="53.909336" longitude="14.254650" opening="CARRIER" echolink="" URL="https://przemienniki.net/przemienniki/2m/SR1W"/>
 <repeater callsign="SR1WA" country="PL" region="1" frequency="4394000" band="70cm" ctcss="82.5" tx_power="10" city="Walcz" locator="JO83FG" type="FM" status="OPERATIONAL" latitude="53.278012" longitude="16.483460" opening="CTCSS" echolink="" URL="https://przemienniki.net/przemienniki/70cm/SR1WA"/>
 <repeater callsign="SR1WAD" country="PL" region="1" frequency="4386500" band="70cm" ctcss="0" tx_power="10" city="Walcz" locator="JO83FG" type="APCO-25" status="OPERATIONAL" latitude="53.278132" longitude="16.483364" opening="CARRIER" echolink="" URL="https://przemienniki.net/przemienniki/70cm/SR1WAD"/>
 <repeater callsign="SR1WOY" country="PL" region="1" frequency="4386250" band="70cm" ctcss="0" tx_power="15" city="Dworcowa 10, Kolobrzeg, Polska" locator="JO74SE" type="APCO-25" status="OFF" latitude="54.179524" longitude="15.569130" opening="CARRIER" echolink="" URL="https://przemienniki.net/przemienniki/70cm/SR1WOY"/>
 <repeater callsign="SR1WR" country="PL" region="1" frequency="4390500" band="70cm" ctcss="0" tx_power="" city="Ryman" locator="JO73SW" type="DMR" status="OPERATIONAL" latitude="53.947183" longitude="15.533540" opening="CARRIER" echolink="" URL="https://przemienniki.net/przemienniki/70cm/SR1WR"/>
 <repeater callsign="SR1WR" country="PL" region="1" frequency="4386875" band="70cm" ctcss="0" tx_power="" city="Ryman" locator="JO73SW" type="APCO-25" status="OPERATIONAL" latitude="53.947183" longitude="15.533540" opening="CARRIER" echolink="" URL="https://przemienniki.net/przemienniki/70cm/SR1WR"/>
 <repeater callsign="SR1WU" country="PL" region="1" frequency="4387250" band="70cm" ctcss="82.5" tx_power="10" city="Swinoujscie" locator="JO73CV" type="FM" status="OPERATIONAL" latitude="53.907989" longitude="14.246773" opening="CTCSS" echolink="" URL="https://przemienniki.net/przemienniki/70cm/SR1WU"/>
 <repeater callsign="SR1WX" country="PL" region="1" frequency="4392000" band="70cm" ctcss="82.5" tx_power="10" city="Stargard" locator="JO73MI" type="FM" status="OFF" latitude="53.341126" longitude="15.039536" opening="CTCSS" echolink="" URL="https://przemienniki.net/przemienniki/70cm/SR1WX"/>
 <repeater callsign="SR1YWX" country="PL" region="1" frequency="4392625" band="70cm" ctcss="82.5" tx_power="15" city="Stargard" locator="JO73MI" type="FM" status="OPERATIONAL" latitude="53.339500" longitude="15.009000" opening="CTCSS" echolink="" URL="https://przemienniki.net/przemienniki/70cm/SR1YWX"/>
 <repeater callsign="SR1Z" country="PL" region="1" frequency="1456375" band="2m" ctcss="82.5" tx_power="10" city="Kolowo EMITEL" locator="JO73II" type="FM" status="OPERATIONAL" latitude="53.334105" longitude="14.675370" opening="1750HZ+CTSS" echolink="" URL="https://przemienniki.net/przemienniki/2m/SR1Z"/>
 <repeater callsign="SR1ZDR" country="PL" region="1" frequency="4383125" band="70cm" ctcss="0" tx_power="" city="Kalisz Pomorski" locator="JO73WH" type="DMR" status="PLANED" latitude="53.301882" longitude="15.908961" opening="CARRIER" echolink="" URL="https://przemienniki.net/przemienniki/70cm/SR1ZDR"/>
 <repeater callsign="SR1ZK-B" country="PL" region="1" frequency="4393000" band="70cm" ctcss="0" tx_power="10" city="Kolowo" locator="JO73II" type="DSTAR" status="OPERATIONAL" latitude="53.334105" longitude="14.675370" opening="CARRIER" echolink="" URL="https://przemienniki.net/przemienniki/70cm/SR1ZK-B"/>
 <repeater callsign="SR1ZS" country="PL" region="1" frequency="4390000" band="70cm" ctcss="82.5" tx_power="" city="Szczecin" locator="JO73GJ" type="FM" status="TESTING" latitude="53.403960" longitude="14.522150" opening="CTCSS" echolink="" URL="https://przemienniki.net/przemienniki/70cm/SR1ZS"/>
 <repeater callsign="SR1ZW" country="PL" region="1" frequency="4388375" band="70cm" ctcss="0" tx_power="" city="Swinoujscie" locator="JO73DV" type="APCO-25" status="OPERATIONAL" latitude="53.909511" longitude="14.254612" opening="CARRIER" echolink="" URL="https://przemienniki.net/przemienniki/70cm/SR1ZW"/>
 <repeater callsign="SR23BN" country="PL" region="2" frequency="12981750" band="23cm" ctcss="0" tx_power="10" city="Bedzin" locator="JO90NH" type="DSTAR" status="OPERATIONAL" latitude="50.307487" longitude="19.121940" opening="CARRIER" echolink="" URL="https://przemienniki.net/przemienniki/23cm/SR23BN"/>
 <repeater callsign="SR23CM" country="PL" region="2" frequency="12981000" band="23cm" ctcss="0" tx_power="5" city="Skrzyczne" locator="JN99MQ" type="FM" status="OPERATIONAL" latitude="0.000000" longitude="0.000000" opening="CARRIER" echolink="" URL="https://przemienniki.net/przemienniki/23cm/SR23CM"/>
 <repeater callsign="SR2BC" country="PL" region="2" frequency="4392875" band="70cm" ctcss="0" tx_power="15" city="Bydgoszcz" locator="JO83XD" type="APCO-25" status="OFF" latitude="53.130098" longitude="17.945776" opening="CARRIER" echolink="" URL="https://przemienniki.net/przemienniki/70cm/SR2BC"/>
 <repeater callsign="SR2BD" country="PL" region="2" frequency="4390000" band="70cm" ctcss="0" tx_power="15" city="Bydgoszcz" locator="JO93AC" type="APCO-25" status="OPERATIONAL" latitude="53.112533" longitude="18.038706" opening="CARRIER" echolink="" URL="https://przemienniki.net/przemienniki/70cm/SR2BD"/>
 <repeater callsign="SR2BG" country="PL" region="2" frequency="1457250" band="2m" ctcss="67" tx_power="6" city="Bydgoszcz" locator="JO93AC" type="FM" status="OPERATIONAL" latitude="53.113086" longitude="18.038022" opening="CTCSS" echolink="" URL="https://przemienniki.net/przemienniki/2m/SR2BG"/>
 <repeater callsign="SR2BT" country="PL" region="2" frequency="4391000" band="70cm" ctcss="77" tx_power="15" city="Bory Tucholskie" locator="JO93AN" type="FM" status="OPERATIONAL" latitude="53.543337" longitude="18.069830" opening="CTCSS" echolink="" URL="https://przemienniki.net/przemienniki/70cm/SR2BT"/>
 <repeater callsign="SR2BW" country="PL" region="2" frequency="4387000" band="70cm" ctcss="0" tx_power="8" city="Bytow - komin cieplowni Veolia Polnoc" locator="JO84RE" type="FM" status="OPERATIONAL" latitude="54.181000" longitude="17.493450" opening="CARRIER" echolink="" URL="https://przemienniki.net/przemienniki/70cm/SR2BW"/>
 <repeater callsign="SR2BY" country="PL" region="2" frequency="4387250" band="70cm" ctcss="67" tx_power="" city="Bydgoszcz" locator="JO83XC" type="FM" status="OPERATIONAL" latitude="53.109270" longitude="17.990141" opening="1750HZ+CTSS" echolink="" URL="https://przemienniki.net/przemienniki/70cm/SR2BY"/>
 <repeater callsign="SR2C" country="PL" region="2" frequency="1456000" band="2m" ctcss="94.8" tx_power="10" city="Chwaszczyno EMITEL" locator="JO94FK" type="FM" status="OPERATIONAL" latitude="54.452753" longitude="18.435949" opening="CTCSS" echolink="" URL="https://przemienniki.net/przemienniki/2m/SR2C"/>
 <repeater callsign="SR2CDE" country="PL" region="2" frequency="4391875" band="70cm" ctcss="0" tx_power="" city="Gdansk" locator="JO94GI" type="DSTAR" status="OPERATIONAL" latitude="54.340820" longitude="18.555667" opening="CARRIER" echolink="" URL="https://przemienniki.net/przemienniki/70cm/SR2CDE"/>
 <repeater callsign="SR2D" country="PL" region="2" frequency="1457500" band="2m" ctcss="0" tx_power="15" city="Gdańsk" locator="JO94FJ" type="DMR" status="PLANED" latitude="0.000000" longitude="0.000000" opening="OTHER" echolink="" URL="https://przemienniki.net/przemienniki/2m/SR2D"/>
 <repeater callsign="SR2DCH" country="PL" region="2" frequency="4383875" band="70cm" ctcss="0" tx_power="15" city="Czluchow" locator="JO83QP" type="DMR" status="OPERATIONAL" latitude="53.660436" longitude="17.379398" opening="CARRIER" echolink="" URL="https://przemienniki.net/przemienniki/70cm/SR2DCH"/>
 <repeater callsign="SR2DMR" country="PL" region="2" frequency="4395625" band="70cm" ctcss="0" tx_power="15" city="Szubin - Jablowo Paluckie / wieza p.poz" locator="JO82WW" type="DMR" status="OPERATIONAL" latitude="52.919733" longitude="17.836519" opening="CARRIER" echolink="" URL="https://przemienniki.net/przemienniki/70cm/SR2DMR"/>
 <repeater callsign="SR2DMR-C" country="PL" region="2" frequency="4395625" band="70cm" ctcss="0" tx_power="15" city="Szubin - Jablowo Paluckie / wieza p.poz" locator="JO82WW" type="APCO-25" status="PLANED" latitude="52.919733" longitude="17.836519" opening="CARRIER" echolink="" URL="https://przemienniki.net/przemienniki/70cm/SR2DMR-C"/>
 <repeater callsign="SR2DV" country="PL" region="2" frequency="4391875" band="70cm" ctcss="0" tx_power="" city="GDANSK" locator="JO94GI" type="DSTAR" status="TESTING" latitude="54.340465" longitude="18.555603" opening="CARRIER" echolink="" URL="https://przemienniki.net/przemienniki/70cm/SR2DV"/>
 <repeater callsign="SR2EL" country="PL" region="2" frequency="4395500" band="70cm" ctcss="94.8" tx_power="15" city="Elblag" locator="JO94RD" type="FM" status="OPERATIONAL" latitude="54.138022" longitude="19.456066" opening="CTCSS" echolink="144387" URL="https://przemienniki.net/przemienniki/70cm/SR2EL"/>
 <repeater callsign="SR2FM" country="PL" region="2" frequency="4395375" band="70cm" ctcss="74.4" tx_power="15" city="Szubin - Jablowo Paluckie / wieza p.poz" locator="JO82WW" type="FM" status="OPERATIONAL" latitude="52.919733" longitude="17.836519" opening="CTCSS" echolink="" URL="https://przemienniki.net/przemienniki/70cm/SR2FM"/>
 <repeater callsign="SR2G" country="PL" region="2" frequency="1457000" band="2m" ctcss="0" tx_power="15" city="Gdansk" locator="JO94HI" type="APCO-25" status="OPERATIONAL" latitude="54.347040" longitude="18.665793" opening="CARRIER" echolink="" URL="https://przemienniki.net/przemienniki/2m/SR2G"/>
 <repeater callsign="SR2GA" country="PL" region="2" frequency="4389750" band="70cm" ctcss="94.8" tx_power="10" city="Wladyslawowo" locator="JO94ES" type="FM" status="OPERATIONAL" latitude="54.777673" longitude="18.413129" opening="CTCSS" echolink="" URL="https://przemienniki.net/przemienniki/70cm/SR2GA"/>
 <repeater callsign="SR2GD" country="PL" region="2" frequency="4390750" band="70cm" ctcss="94.8" tx_power="15" city="Gdańsk" locator="JO94HI" type="FM" status="OPERATIONAL" latitude="54.347040" longitude="18.665793" opening="CTCSS" echolink="" URL="https://przemienniki.net/przemienniki/70cm/SR2GD"/>
 <repeater callsign="SR2GD" country="PL" region="2" frequency="4390750" band="70cm" ctcss="94.8" tx_power="4" city="Gdansk" locator="JO94HI" type="FM" status="OPERATIONAL" latitude="54.347040" longitude="18.665793" opening="CTCSS" echolink="" URL="https://przemienniki.net/przemienniki/70cm/SR2GD"/>
 <repeater callsign="SR2GD-C" country="PL" region="2" frequency="4390875" band="70cm" ctcss="94.8" tx_power="5" city="Gdansk" locator="JO94HI" type="FM" status="OPERATIONAL" latitude="54.347040" longitude="18.665793" opening="CTCSS" echolink="146672" URL="https://przemienniki.net/przemienniki/70cm/SR2GD-C"/>
 <repeater callsign="SR2GDA" country="PL" region="2" frequency="4393500" band="70cm" ctcss="94.8" tx_power="15" city="Smetowo Graniczne" locator="JO93IR" type="FM" status="OPERATIONAL" latitude="53.746981" longitude="18.675600" opening="CTCSS" echolink="132296" URL="https://przemienniki.net/przemienniki/70cm/SR2GDA"/>
 <repeater callsign="SR2GDD" country="PL" region="2" frequency="4382875" band="70cm" ctcss="0" tx_power="15" city="Gdansk" locator="JO94II" type="DMR" status="OPERATIONAL" latitude="54.354307" longitude="18.718538" opening="CARRIER" echolink="" URL="https://przemienniki.net/przemienniki/70cm/SR2GDD"/>
 <repeater callsign="SR2GN" country="PL" region="2" frequency="4393250" band="70cm" ctcss="94.8" tx_power="10" city="Gniewino - Wieza widokowa" locator="JO94AR" type="FM" status="OPERATIONAL" latitude="54.718116" longitude="18.052215" opening="CTCSS" echolink="" URL="https://przemienniki.net/przemienniki/70cm/SR2GN"/>
 <repeater callsign="SR2GR" country="PL" region="2" frequency="4392000" band="70cm" ctcss="94.8" tx_power="15" city="Grudziadz" locator="JO93JL" type="FM" status="OPERATIONAL" latitude="53.481560" longitude="18.755630" opening="CTCSS" echolink="" URL="https://przemienniki.net/przemienniki/70cm/SR2GR"/>
 <repeater callsign="SR2GRU" country="PL" region="2" frequency="1456875" band="2m" ctcss="94.8" tx_power="" city="Grudziadz" locator="JO93JL" type="FM" status="OPERATIONAL" latitude="53.458330" longitude="18.750000" opening="CTCSS" echolink="" URL="https://przemienniki.net/przemienniki/2m/SR2GRU"/>
 <repeater callsign="SR2GS" country="PL" region="2" frequency="4385500" band="70cm" ctcss="94.8" tx_power="10" city="Chwaszczyno" locator="JO94FK" type="FM" status="OPERATIONAL" latitude="54.452753" longitude="18.435949" opening="CTCSS" echolink="" URL="https://przemienniki.net/przemienniki/70cm/SR2GS"/>
 <repeater callsign="SR2GT" country="PL" region="2" frequency="4390250" band="70cm" ctcss="94.8" tx_power="" city="Chwaszczyno EMITEL" locator="JO94FK" type="FM" status="OPERATIONAL" latitude="54.452753" longitude="18.435949" opening="CTCSS" echolink="" URL="https://przemienniki.net/przemienniki/70cm/SR2GT"/>
 <repeater callsign="SR2I" country="PL" region="2" frequency="4386625" band="70cm" ctcss="67" tx_power="" city="Inowroclaw" locator="JO92CT" type="FM" status="OPERATIONAL" latitude="52.808075" longitude="18.245849" opening="CTCSS" echolink="" URL="https://przemienniki.net/przemienniki/70cm/SR2I"/>
 <repeater callsign="SR2IN" country="PL" region="2" frequency="4382375" band="70cm" ctcss="0" tx_power="15" city="Inowroclaw" locator="JO92DT" type="APCO-25" status="OPERATIONAL" latitude="52.794000" longitude="18.260816" opening="CARRIER" echolink="" URL="https://przemienniki.net/przemienniki/70cm/SR2IN"/>
 <repeater callsign="SR2J" country="PL" region="2" frequency="1455875" band="2m" ctcss="74.4" tx_power="10" city="Szubin - Jablowo Paluckie / wieza p.poz" locator="JO82WW" type="FM" status="OPERATIONAL" latitude="52.919733" longitude="17.836519" opening="CTCSS" echolink="" URL="https://przemienniki.net/przemienniki/2m/SR2J"/>
 <repeater callsign="SR2JJ" country="PL" region="2" frequency="4391625" band="70cm" ctcss="74.4" tx_power="15" city="Szubin - Jablowo Paluckie / wieza p.poz" locator="JO82WW" type="FM" status="OPERATIONAL" latitude="52.919733" longitude="17.836519" opening="CTCSS" echolink="" URL="https://przemienniki.net/przemienniki/70cm/SR2JJ"/>
 <repeater callsign="SR2K" country="PL" region="2" frequency="1457125" band="2m" ctcss="88.5" tx_power="" city="Torun" locator="JO93HB" type="FM" status="OPERATIONAL" latitude="53.042635" longitude="18.625590" opening="CTCSS" echolink="" URL="https://przemienniki.net/przemienniki/2m/SR2K"/>
 <repeater callsign="SR2KU" country="PL" region="2" frequency="4394250" band="70cm" ctcss="94.8" tx_power="10" city="Wiezyca" locator="JO94BF" type="FM" status="OPERATIONAL" latitude="54.209874" longitude="18.111871" opening="CTCSS" echolink="" URL="https://przemienniki.net/przemienniki/70cm/SR2KU"/>
 <repeater callsign="SR2KW" country="PL" region="2" frequency="1453375" band="2m" ctcss="100" tx_power="" city="Wloclawek" locator="JO92MQ" type="FM" status="OPERATIONAL" latitude="52.672693" longitude="19.032652" opening="CTCSS" echolink="" URL="https://przemienniki.net/przemienniki/2m/SR2KW"/>
 <repeater callsign="SR2KY" country="PL" region="2" frequency="4392500" band="70cm" ctcss="0" tx_power="10" city="Kwidzyn" locator="JO93LR" type="FM" status="OPERATIONAL" latitude="53.710130" longitude="18.955103" opening="CARRIER" echolink="" URL="https://przemienniki.net/przemienniki/70cm/SR2KY"/>
 <repeater callsign="SR2MAL" country="PL" region="2" frequency="4390625" band="70cm" ctcss="0" tx_power="5" city="Malbork" locator="JO94MA" type="C4FM/Fusion" status="OPERATIONAL" latitude="54.039803" longitude="19.033037" opening="CARRIER" echolink="" URL="https://przemienniki.net/przemienniki/70cm/SR2MAL"/>
 <repeater callsign="SR2OK" country="PL" region="2" frequency="4388750" band="70cm" ctcss="0" tx_power="15" city="Gdynia-Oksywie EMITEL" locator="JO94GN" type="APCO-25" status="OPERATIONAL" latitude="54.545013" longitude="18.535907" opening="CARRIER" echolink="" URL="https://przemienniki.net/przemienniki/70cm/SR2OK"/>
 <repeater callsign="SR2OX" country="PL" region="2" frequency="4394750" band="70cm" ctcss="0" tx_power="15" city="Gdynia" locator="JO94GN" type="C4FM/Fusion" status="TESTING" latitude="54.550543" longitude="18.537683" opening="CARRIER" echolink="" URL="https://przemienniki.net/przemienniki/70cm/SR2OX"/>
 <repeater callsign="SR2PA" country="PL" region="2" frequency="4393000" band="70cm" ctcss="94.8" tx_power="15" city="Paslek" locator="JO94TB" type="FM" status="OPERATIONAL" latitude="54.065486" longitude="19.659217" opening="CTCSS" echolink="122551" URL="https://przemienniki.net/przemienniki/70cm/SR2PA"/>
 <repeater callsign="SR2PB" country="PL" region="2" frequency="1457375" band="2m" ctcss="88.5" tx_power="15" city="Brodnica" locator="JO93QF" type="FM" status="OPERATIONAL" latitude="53.242992" longitude="19.394201" opening="CTCSS" echolink="945917" URL="https://przemienniki.net/przemienniki/2m/SR2PB"/>
 <repeater callsign="SR2R" country="PL" region="2" frequency="1456500" band="2m" ctcss="67" tx_power="15" city="Inowrocław" locator="JO92DT" type="FM" status="PLANED" latitude="0.000000" longitude="0.000000" opening="CTCSS" echolink="" URL="https://przemienniki.net/przemienniki/2m/SR2R"/>
 <repeater callsign="SR2RR" country="PL" region="2" frequency="4386625" band="70cm" ctcss="67" tx_power="15" city="Inowroclaw" locator="JO92DT" type="FM" status="OFF" latitude="52.803414" longitude="18.271496" opening="CTCSS" echolink="" URL="https://przemienniki.net/przemienniki/70cm/SR2RR"/>
 <repeater callsign="SR2SL" country="PL" region="2" frequency="4387500" band="70cm" ctcss="0" tx_power="10" city="Slupsk" locator="JO84LL" type="FM" status="OPERATIONAL" latitude="54.462977" longitude="16.986933" opening="CARRIER" echolink="325362" URL="https://przemienniki.net/przemienniki/70cm/SR2SL"/>
 <repeater callsign="SR2SWR" country="PL" region="2" frequency="4387750" band="70cm" ctcss="88.5" tx_power="10" city="Torun" locator="JO93HA" type="FM" status="OPERATIONAL" latitude="53.017158" longitude="18.601855" opening="CTCSS" echolink="" URL="https://przemienniki.net/przemienniki/70cm/SR2SWR"/>
 <repeater callsign="SR2T" country="PL" region="2" frequency="1457750" band="2m" ctcss="0" tx_power="" city="Torun" locator="JO93IA" type="FM" status="OPERATIONAL" latitude="53.025586" longitude="18.688461" opening="CARRIER" echolink="" URL="https://przemienniki.net/przemienniki/2m/SR2T"/>
 <repeater callsign="SR2UVF" country="PL" region="2" frequency="4389375" band="70cm" ctcss="0" tx_power="15" city="Bydgoszcz" locator="JO93BD" type="DSTAR" status="OPERATIONAL" latitude="53.142333" longitude="18.134742" opening="CARRIER" echolink="" URL="https://przemienniki.net/przemienniki/70cm/SR2UVF"/>
 <repeater callsign="SR2UVG" country="PL" region="2" frequency="4388375" band="70cm" ctcss="0" tx_power="10" city="Chwaszczyno EMITEL" locator="JO94FK" type="DMR" status="OPERATIONAL" latitude="54.452753" longitude="18.435949" opening="CARRIER" echolink="" URL="https://przemienniki.net/przemienniki/70cm/SR2UVG"/>
 <repeater callsign="SR2UVG-B" country="PL" region="2" frequency="4386875" band="70cm" ctcss="0" tx_power="10" city="Chwaszczyno EMITEL" locator="JO94FK" type="DSTAR" status="OPERATIONAL" latitude="54.452753" longitude="18.435949" opening="CARRIER" echolink="" URL="https://przemienniki.net/przemienniki/70cm/SR2UVG-B"/>
 <repeater callsign="SR2UVO" country="PL" region="2" frequency="4389625" band="70cm" ctcss="0" tx_power="10" city="Wloclawek" locator="JO92MP" type="DMR" status="OPERATIONAL" latitude="52.642110" longitude="19.051580" opening="CARRIER" echolink="" URL="https://przemienniki.net/przemienniki/70cm/SR2UVO"/>
 <repeater callsign="SR2UVT-C" country="PL" region="2" frequency="1456625" band="2m" ctcss="0" tx_power="10" city="Tuchola" locator="JO83WO" type="DSTAR" status="UNKNOWN" latitude="0.000000" longitude="0.000000" opening="CARRIER" echolink="" URL="https://przemienniki.net/przemienniki/2m/SR2UVT-C"/>
 <repeater callsign="SR2UVV-B" country="PL" region="2" frequency="4393625" band="70cm" ctcss="0" tx_power="15" city="Szubin - Jablowo Paluckie / wieza p.poz" locator="JO82WW" type="DSTAR" status="OPERATIONAL" latitude="52.919733" longitude="17.836519" opening="CARRIER" echolink="" URL="https://przemienniki.net/przemienniki/70cm/SR2UVV-B"/>
 <repeater callsign="SR2VV" country="PL" region="2" frequency="4391375" band="70cm" ctcss="74.4" tx_power="15" city="Szubin" locator="JO83VA" type="FM" status="OPERATIONAL" latitude="53.016124" longitude="17.762767" opening="CTCSS" echolink="" URL="https://przemienniki.net/przemienniki/70cm/SR2VV"/>
 <repeater callsign="SR2VV-B" country="PL" region="2" frequency="1457500" band="2m" ctcss="0" tx_power="10" city="Szubin" locator="JO83VA" type="DSTAR" status="OPERATIONAL" latitude="53.016054" longitude="17.762658" opening="CARRIER" echolink="147214" URL="https://przemienniki.net/przemienniki/2m/SR2VV-B"/>
 <repeater callsign="SR2VVV" country="PL" region="2" frequency="4393375" band="70cm" ctcss="0" tx_power="15" city="Szubin" locator="JO83VA" type="DSTAR" status="OPERATIONAL" latitude="53.016054" longitude="17.762658" opening="CARRIER" echolink="" URL="https://przemienniki.net/przemienniki/70cm/SR2VVV"/>
 <repeater callsign="SR2VVV-B" country="PL" region="2" frequency="4388125" band="70cm" ctcss="0" tx_power="15" city="Szubin" locator="JO83VA" type="DSTAR" status="OPERATIONAL" latitude="53.016054" longitude="17.762658" opening="CARRIER" echolink="" URL="https://przemienniki.net/przemienniki/70cm/SR2VVV-B"/>
 <repeater callsign="SR2W" country="PL" region="2" frequency="4390250" band="70cm" ctcss="82.5" tx_power="8" city="Włocławek" locator="JO92NQ" type="FM" status="OPERATIONAL" latitude="52.672746" longitude="19.084411" opening="CTCSS" echolink="" URL="https://przemienniki.net/przemienniki/70cm/SR2W"/>
 <repeater callsign="SR2WE" country="PL" region="2" frequency="4392250" band="70cm" ctcss="0" tx_power="15" city="Wejherowo" locator="JO94CO" type="APCO-25" status="OPERATIONAL" latitude="54.590756" longitude="18.229030" opening="CARRIER" echolink="" URL="https://przemienniki.net/przemienniki/70cm/SR2WE"/>
 <repeater callsign="SR2WL" country="PL" region="2" frequency="4390250" band="70cm" ctcss="82.5" tx_power="10" city="Wloclawek" locator="JO92MP" type="FM" status="OFF" latitude="52.665735" longitude="19.049512" opening="CTCSS" echolink="" URL="https://przemienniki.net/przemienniki/70cm/SR2WL"/>
 <repeater callsign="SR2Z" country="PL" region="2" frequency="1456500" band="2m" ctcss="94.8" tx_power="15" city="Gdynia-Oksywie EMITEL" locator="JO94GN" type="FM" status="OPERATIONAL" latitude="54.545013" longitude="18.535907" opening="CTCSS" echolink="" URL="https://przemienniki.net/przemienniki/2m/SR2Z"/>
 <repeater callsign="SR3A" country="PL" region="3" frequency="1456625" band="2m" ctcss="79.7" tx_power="" city="RTCN Jemiolow/Lagow maszt EmiTel" locator="JO72PI" type="FM" status="PLANED" latitude="52.346795" longitude="15.276266" opening="1750HZ+CTSS" echolink="" URL="https://przemienniki.net/przemienniki/2m/SR3A"/>
 <repeater callsign="SR3DAB" country="PL" region="3" frequency="4390500" band="70cm" ctcss="0" tx_power="" city="Zalesie" locator="JO92KD" type="APCO-25" status="OPERATIONAL" latitude="52.126100" longitude="18.856200" opening="CARRIER" echolink="" URL="https://przemienniki.net/przemienniki/70cm/SR3DAB"/>
 <repeater callsign="SR3DAB" country="PL" region="3" frequency="4385750" band="70cm" ctcss="0" tx_power="" city="Zalesie" locator="JO92KD" type="DSTAR" status="OPERATIONAL" latitude="52.136228" longitude="18.860674" opening="CARRIER" echolink="" URL="https://przemienniki.net/przemienniki/70cm/SR3DAB"/>
 <repeater callsign="SR3DAB" country="PL" region="3" frequency="4395750" band="70cm" ctcss="0" tx_power="" city="Zalesie" locator="JO92KD" type="DMR" status="OPERATIONAL" latitude="52.126400" longitude="18.856200" opening="CARRIER" echolink="" URL="https://przemienniki.net/przemienniki/70cm/SR3DAB"/>
 <repeater callsign="SR3DGW" country="PL" region="3" frequency="4385500" band="70cm" ctcss="0" tx_power="10" city="Gorzow Wielkopolski" locator="JO72PR" type="DMR" status="OPERATIONAL" latitude="52.744249" longitude="15.280424" opening="CARRIER" echolink="" URL="https://przemienniki.net/przemienniki/70cm/SR3DGW"/>
 <repeater callsign="SR3DJ" country="PL" region="3" frequency="4381250" band="70cm" ctcss="0" tx_power="" city="RTCN Jemiolow/Lagow maszt EmiTel" locator="JO72PI" type="DMR" status="OFF" latitude="52.346795" longitude="15.276266" opening="CARRIER" echolink="" URL="https://przemienniki.net/przemienniki/70cm/SR3DJ"/>
 <repeater callsign="SR3DKA" country="PL" region="3" frequency="4384000" band="70cm" ctcss="0" tx_power="" city="Kalisz" locator="JO91BR" type="DSTAR" status="OPERATIONAL" latitude="51.742300" longitude="18.095900" opening="CARRIER" echolink="" URL="https://przemienniki.net/przemienniki/70cm/SR3DKA"/>
 <repeater callsign="SR3DLS" country="PL" region="3" frequency="4386875" band="70cm" ctcss="0" tx_power="15" city="Leszno" locator="JO81HU" type="C4FM/Fusion" status="OPERATIONAL" latitude="51.847173" longitude="16.597824" opening="OTHER" echolink="" URL="https://przemienniki.net/przemienniki/70cm/SR3DLS"/>
 <repeater callsign="SR3DMR" country="PL" region="3" frequency="1456125" band="2m" ctcss="0" tx_power="10" city="Poznan" locator="JO82KL" type="DMR" status="OPERATIONAL" latitude="52.459156" longitude="16.905933" opening="CARRIER" echolink="" URL="https://przemienniki.net/przemienniki/2m/SR3DMR"/>
 <repeater callsign="SR3DOS" country="PL" region="3" frequency="4382875" band="70cm" ctcss="0" tx_power="9" city="Ostrow Wielkopolski" locator="JO81VP" type="DSTAR" status="OPERATIONAL" latitude="51.659738" longitude="17.797780" opening="CARRIER" echolink="" URL="https://przemienniki.net/przemienniki/70cm/SR3DOS"/>
 <repeater callsign="SR3DRW" country="PL" region="3" frequency="4383375" band="70cm" ctcss="0" tx_power="10" city="Rawicz" locator="JO81KO" type="DMR" status="OPERATIONAL" latitude="51.609440" longitude="16.867769" opening="CARRIER" echolink="" URL="https://przemienniki.net/przemienniki/70cm/SR3DRW"/>
 <repeater callsign="SR3DSE" country="PL" region="3" frequency="4387375" band="70cm" ctcss="0" tx_power="10" city="Srem" locator="JO82MC" type="DMR" status="OPERATIONAL" latitude="52.086156" longitude="17.022016" opening="CARRIER" echolink="" URL="https://przemienniki.net/przemienniki/70cm/SR3DSE"/>
 <repeater callsign="SR3DZG" country="PL" region="3" frequency="4389625" band="70cm" ctcss="0" tx_power="5" city="Zielona Gora" locator="JO71SW" type="DMR" status="OPERATIONAL" latitude="51.935510" longitude="15.527107" opening="CARRIER" echolink="" URL="https://przemienniki.net/przemienniki/70cm/SR3DZG"/>
 <repeater callsign="SR3G" country="PL" region="3" frequency="1457500" band="2m" ctcss="77" tx_power="8" city="Gorzow Wielkopolski" locator="JO72OR" type="FM" status="OPERATIONAL" latitude="52.732269" longitude="15.211474" opening="CTCSS" echolink="" URL="https://przemienniki.net/przemienniki/2m/SR3G"/>
 <repeater callsign="SR3GO" country="PL" region="3" frequency="4391750" band="70cm" ctcss="77" tx_power="9" city="Gorzow Wielkopolski" locator="JO72OR" type="FM" status="OFF" latitude="52.732269" longitude="15.211474" opening="1750HZ+CTSS" echolink="" URL="https://przemienniki.net/przemienniki/70cm/SR3GO"/>
 <repeater callsign="SR3GW" country="PL" region="3" frequency="4389500" band="70cm" ctcss="77" tx_power="5" city="Gorzow Wielkopolski - lokalny" locator="JO72PR" type="FM" status="OPERATIONAL" latitude="52.740422" longitude="15.277767" opening="1750HZ+CTSS" echolink="" URL="https://przemienniki.net/przemienniki/70cm/SR3GW"/>
 <repeater callsign="SR3J" country="PL" region="3" frequency="4395000" band="70cm" ctcss="79.7" tx_power="" city="RTCN Jemiolow/Lagow maszt EmiTel" locator="JO72PI" type="FM" status="OPERATIONAL" latitude="52.346795" longitude="15.276266" opening="CTCSS" echolink="" URL="https://przemienniki.net/przemienniki/70cm/SR3J"/>
 <repeater callsign="SR3JA" country="PL" region="3" frequency="4389750" band="70cm" ctcss="110.9" tx_power="6" city="Jarocin, ul. Kosciuszki 43" locator="JO81RX" type="FM" status="OPERATIONAL" latitude="51.967538" longitude="17.498297" opening="CTCSS" echolink="658171" URL="https://przemienniki.net/przemienniki/70cm/SR3JA"/>
 <repeater callsign="SR3JX" country="PL" region="3" frequency="4391500" band="70cm" ctcss="0" tx_power="" city="RTCN Jemiolow/Lagow maszt EmiTel" locator="JO72PI" type="APCO-25" status="PLANED" latitude="52.346795" longitude="15.276266" opening="CARRIER" echolink="" URL="https://przemienniki.net/przemienniki/70cm/SR3JX"/>
 <repeater callsign="SR3K" country="PL" region="3" frequency="1457500" band="2m" ctcss="0" tx_power="10" city="Kalisz" locator="JO91AS" type="FM" status="OPERATIONAL" latitude="51.763816" longitude="18.081671" opening="1750HZ" echolink="" URL="https://przemienniki.net/przemienniki/2m/SR3K"/>
 <repeater callsign="SR3KA" country="PL" region="3" frequency="4393750" band="70cm" ctcss="0" tx_power="5" city="Kaszczor" locator="JO81BX" type="DMR" status="OPERATIONAL" latitude="51.958967" longitude="16.162937" opening="CARRIER" echolink="" URL="https://przemienniki.net/przemienniki/70cm/SR3KA"/>
 <repeater callsign="SR3KEP" country="PL" region="3" frequency="4384375" band="70cm" ctcss="103.5" tx_power="15" city="Kepno" locator="JO91AH" type="FM" status="OFF" latitude="51.297605" longitude="18.003350" opening="CTCSS" echolink="" URL="https://przemienniki.net/przemienniki/70cm/SR3KEP"/>
 <repeater callsign="SR3KH" country="PL" region="3" frequency="4388000" band="70cm" ctcss="0" tx_power="10" city="Kolo - ZST" locator="JO92HF" type="FM" status="OPERATIONAL" latitude="52.208723" longitude="18.629383" opening="CARRIER" echolink="" URL="https://przemienniki.net/przemienniki/70cm/SR3KH"/>
 <repeater callsign="SR3KHA" country="PL" region="3" frequency="4383125" band="70cm" ctcss="0" tx_power="15" city="62-600 Koło, ul. Dąbrowskiego 7" locator="JO92HE" type="APCO-25" status="OPERATIONAL" latitude="0.000000" longitude="0.000000" opening="CARRIER" echolink="" URL="https://przemienniki.net/przemienniki/70cm/SR3KHA"/>
 <repeater callsign="SR3KRZ" country="PL" region="3" frequency="4386875" band="70cm" ctcss="0" tx_power="15" city="Krzemieniewo" locator="JO81KU" type="DMR" status="OPERATIONAL" latitude="51.857324" longitude="16.842054" opening="CARRIER" echolink="" URL="https://przemienniki.net/przemienniki/70cm/SR3KRZ"/>
 <repeater callsign="SR3L" country="PL" region="3" frequency="1457750" band="2m" ctcss="103.5" tx_power="10" city="Leszno" locator="JO81HU" type="FM" status="OPERATIONAL" latitude="51.847173" longitude="16.597824" opening="CTCSS" echolink="" URL="https://przemienniki.net/przemienniki/2m/SR3L"/>
 <repeater callsign="SR3LS" country="PL" region="3" frequency="4392750" band="70cm" ctcss="103.5" tx_power="15" city="Leszno" locator="JO81HU" type="FM" status="OPERATIONAL" latitude="51.847173" longitude="16.597824" opening="CTCSS" echolink="" URL="https://przemienniki.net/przemienniki/70cm/SR3LS"/>
 <repeater callsign="SR3LW" country="PL" region="3" frequency="4391250" band="70cm" ctcss="110.9" tx_power="15" city="Lwowek" locator="JO82CK" type="FM" status="OPERATIONAL" latitude="52.430375" longitude="16.195741" opening="CTCSS" echolink="" URL="https://przemienniki.net/przemienniki/70cm/SR3LW"/>
 <repeater callsign="SR3MDV" country="PL" region="3" frequency="4395750" band="70cm" ctcss="0" tx_power="10" city="" locator="JO81HU" type="DMR" status="OPERATIONAL" latitude="51.844431" longitude="16.594033" opening="CARRIER" echolink="" URL="https://przemienniki.net/przemienniki/70cm/SR3MDV"/>
 <repeater callsign="SR3MDW" country="PL" region="3" frequency="4392250" band="70cm" ctcss="103.5" tx_power="15" city="Leszno" locator="JO81HU" type="FM" status="OPERATIONAL" latitude="51.844136" longitude="16.594246" opening="CTCSS" echolink="901441" URL="https://przemienniki.net/przemienniki/70cm/SR3MDW"/>
 <repeater callsign="SR3N" country="PL" region="3" frequency="1456875" band="2m" ctcss="110.9" tx_power="10" city="Pila" locator="JO83ID" type="FM" status="OPERATIONAL" latitude="53.146203" longitude="16.715030" opening="CTCSS" echolink="" URL="https://przemienniki.net/przemienniki/2m/SR3N"/>
 <repeater callsign="SR3O" country="PL" region="3" frequency="1457250" band="2m" ctcss="103.5" tx_power="2" city="Ostrow Wielkopolski" locator="JO81VP" type="FM" status="OPERATIONAL" latitude="51.646430" longitude="17.819217" opening="CTCSS" echolink="" URL="https://przemienniki.net/przemienniki/2m/SR3O"/>
 <repeater callsign="SR3OS" country="PL" region="3" frequency="4393000" band="70cm" ctcss="103.5" tx_power="" city="Ostrow Wielkopolski" locator="JO81VP" type="FM" status="PLANED" latitude="51.646430" longitude="17.819217" opening="1750HZ+CTSS" echolink="" URL="https://przemienniki.net/przemienniki/70cm/SR3OS"/>
 <repeater callsign="SR3P" country="PL" region="3" frequency="1456500" band="2m" ctcss="110.9" tx_power="7" city="Poznan - Debiec" locator="JO82KI" type="FM" status="OPERATIONAL" latitude="52.371322" longitude="16.908054" opening="1750HZ+CTSS" echolink="" URL="https://przemienniki.net/przemienniki/2m/SR3P"/>
 <repeater callsign="SR3PB" country="PL" region="3" frequency="4388750" band="70cm" ctcss="110.9" tx_power="15" city="Pobiedziska" locator="JO82PL" type="FM" status="OPERATIONAL" latitude="52.476886" longitude="17.279806" opening="CTCSS" echolink="" URL="https://przemienniki.net/przemienniki/70cm/SR3PB"/>
 <repeater callsign="SR3PI" country="PL" region="3" frequency="4390500" band="70cm" ctcss="67" tx_power="15" city="Piła" locator="JO83ID" type="FM" status="OPERATIONAL" latitude="0.000000" longitude="0.000000" opening="CTCSS" echolink="" URL="https://przemienniki.net/przemienniki/70cm/SR3PI"/>
 <repeater callsign="SR3PO" country="PL" region="3" frequency="4392000" band="70cm" ctcss="110.9" tx_power="15" city="Poznan" locator="JO82KL" type="FM" status="OPERATIONAL" latitude="52.459156" longitude="16.905933" opening="CTCSS" echolink="" URL="https://przemienniki.net/przemienniki/70cm/SR3PO"/>
 <repeater callsign="SR3PO" country="PL" region="3" frequency="12984000" band="23cm" ctcss="0" tx_power="10" city="Poznan" locator="JO82KL" type="FM" status="OPERATIONAL" latitude="52.459156" longitude="16.905933" opening="CARRIER" echolink="" URL="https://przemienniki.net/przemienniki/23cm/SR3PO"/>
 <repeater callsign="SR3PX" country="PL" region="3" frequency="4389000" band="70cm" ctcss="110.9" tx_power="15" city="Slomowo" locator="JO82LQ" type="FM" status="OPERATIONAL" latitude="52.681328" longitude="16.945813" opening="CTCSS" echolink="" URL="https://przemienniki.net/przemienniki/70cm/SR3PX"/>
 <repeater callsign="SR3RR" country="PL" region="3" frequency="4388250" band="70cm" ctcss="103.5" tx_power="10" city="Rawicz" locator="JO81KO" type="FM" status="OFF" latitude="51.605659" longitude="16.860366" opening="CTCSS" echolink="" URL="https://przemienniki.net/przemienniki/70cm/SR3RR"/>
 <repeater callsign="SR3SN" country="PL" region="3" frequency="4391000" band="70cm" ctcss="100" tx_power="15" city="Swiebodzin" locator="JO72RF" type="FM" status="OPERATIONAL" latitude="52.244400" longitude="15.499200" opening="CTCSS" echolink="180769" URL="https://przemienniki.net/przemienniki/70cm/SR3SN"/>
 <repeater callsign="SR3SR" country="PL" region="3" frequency="4391000" band="70cm" ctcss="110.9" tx_power="" city="Sulecinek" locator="JO82PD" type="FM" status="TESTING" latitude="52.144800" longitude="17.309000" opening="CTCSS" echolink="" URL="https://przemienniki.net/przemienniki/70cm/SR3SR"/>
 <repeater callsign="SR3T" country="PL" region="3" frequency="1456375" band="2m" ctcss="110.9" tx_power="15" city="Malanow" locator="JO91EX" type="FM" status="OPERATIONAL" latitude="51.961434" longitude="18.414342" opening="CTCSS" echolink="" URL="https://przemienniki.net/przemienniki/2m/SR3T"/>
 <repeater callsign="SR3TU" country="PL" region="3" frequency="4391500" band="70cm" ctcss="0" tx_power="10" city="Turek" locator="JO92FA" type="FM" status="OFF" latitude="0.000000" longitude="0.000000" opening="CARRIER" echolink="" URL="https://przemienniki.net/przemienniki/70cm/SR3TU"/>
 <repeater callsign="SR3UVJ" country="PL" region="3" frequency="4384125" band="70cm" ctcss="0" tx_power="" city="RTCN Jemiolow/Lagow maszt EmiTel" locator="JO72PI" type="DSTAR" status="OFF" latitude="52.346795" longitude="15.276266" opening="CARRIER" echolink="" URL="https://przemienniki.net/przemienniki/70cm/SR3UVJ"/>
 <repeater callsign="SR3UVL" country="PL" region="3" frequency="4392375" band="70cm" ctcss="0" tx_power="10" city="Leszno" locator="JO81HU" type="DSTAR" status="OPERATIONAL" latitude="51.844136" longitude="16.594246" opening="CARRIER" echolink="" URL="https://przemienniki.net/przemienniki/70cm/SR3UVL"/>
 <repeater callsign="SR3UVP" country="PL" region="3" frequency="4394375" band="70cm" ctcss="0" tx_power="10" city="Poznan" locator="JO82KL" type="DMR" status="PLANED" latitude="52.459156" longitude="16.905933" opening="CARRIER" echolink="" URL="https://przemienniki.net/przemienniki/70cm/SR3UVP"/>
 <repeater callsign="SR3WT" country="PL" region="3" frequency="4393250" band="70cm" ctcss="110.9" tx_power="" city="Wolsztyn" locator="JO82BC" type="FM" status="OPERATIONAL" latitude="52.118560" longitude="16.116998" opening="CTCSS" echolink="" URL="https://przemienniki.net/przemienniki/70cm/SR3WT"/>
 <repeater callsign="SR3X" country="PL" region="3" frequency="1457625" band="2m" ctcss="110.9" tx_power="10" city="Poznan" locator="JO82KL" type="FM" status="OPERATIONAL" latitude="52.459156" longitude="16.905933" opening="CTCSS" echolink="" URL="https://przemienniki.net/przemienniki/2m/SR3X"/>
 <repeater callsign="SR3XX" country="PL" region="3" frequency="4390250" band="70cm" ctcss="110.9" tx_power="15" city="Poznan" locator="JO82KL" type="FM" status="OPERATIONAL" latitude="52.459156" longitude="16.905933" opening="CTCSS" echolink="" URL="https://przemienniki.net/przemienniki/70cm/SR3XX"/>
 <repeater callsign="SR3XXX" country="PL" region="3" frequency="4387000" band="70cm" ctcss="110.9" tx_power="15" city="RTCN Poznan/Srem, maszt EmiTel, adres Gora 42 kolo Sremu" locator="JO82LC" type="FM" status="OPERATIONAL" latitude="52.117304" longitude="16.984220" opening="CTCSS" echolink="" URL="https://przemienniki.net/przemienniki/70cm/SR3XXX"/>
 <repeater callsign="SR3Z" country="PL" region="3" frequency="1457125" band="2m" ctcss="71.9" tx_power="10" city="Zielona Gora" locator="JO71SW" type="FM" status="OPERATIONAL" latitude="51.935511" longitude="15.527107" opening="CTCSS" echolink="" URL="https://przemienniki.net/przemienniki/2m/SR3Z"/>
 <repeater callsign="SR3ZBZ" country="PL" region="3" frequency="4383625" band="70cm" ctcss="0" tx_power="15" city="Chodziez" locator="JO82KX" type="APCO-25" status="OPERATIONAL" latitude="52.998288" longitude="16.906704" opening="CARRIER" echolink="" URL="https://przemienniki.net/przemienniki/70cm/SR3ZBZ"/>
 <repeater callsign="SR3ZF" country="PL" region="3" frequency="12985000" band="23cm" ctcss="0" tx_power="7" city="Zielona Gora" locator="JO71RW" type="FM" status="OPERATIONAL" latitude="51.926980" longitude="15.488042" opening="CARRIER" echolink="" URL="https://przemienniki.net/przemienniki/23cm/SR3ZF"/>
 <repeater callsign="SR3ZG" country="PL" region="3" frequency="4390750" band="70cm" ctcss="203.5" tx_power="5" city="Zielona Gora" locator="JO71RW" type="FM" status="OPERATIONAL" latitude="51.926980" longitude="15.488042" opening="CTCSS" echolink="" URL="https://przemienniki.net/przemienniki/70cm/SR3ZG"/>
 <repeater callsign="SR3ZJ" country="PL" region="3" frequency="4387500" band="70cm" ctcss="79.7" tx_power="5" city="RTCN Jemiolow/Lagow maszt EmiTel" locator="JO72PI" type="FM" status="OPERATIONAL" latitude="52.346795" longitude="15.276266" opening="CTCSS" echolink="" URL="https://przemienniki.net/przemienniki/70cm/SR3ZJ"/>
 <repeater callsign="SR3ZX" country="PL" region="3" frequency="4393500" band="70cm" ctcss="0" tx_power="10" city="Zielona Gora" locator="JO71SW" type="DSTAR" status="OPERATIONAL" latitude="51.935511" longitude="15.527107" opening="CARRIER" echolink="" URL="https://przemienniki.net/przemienniki/70cm/SR3ZX"/>
 <repeater callsign="SR4ALL" country="PL" region="4" frequency="4309750" band="70cm" ctcss="67" tx_power="" city="Zabrowo" locator="JO93RP" type="" status="PLANED" latitude="53.636169" longitude="19.460143" opening="CTCSS" echolink="" URL="https://przemienniki.net/przemienniki/70cm/SR4ALL"/>
 <repeater callsign="SR4AUU" country="PL" region="4" frequency="4393375" band="70cm" ctcss="67" tx_power="15" city="Augustow" locator="KO13LU" type="FM" status="PLANED" latitude="53.840818" longitude="22.986185" opening="CTCSS" echolink="" URL="https://przemienniki.net/przemienniki/70cm/SR4AUU"/>
 <repeater callsign="SR4AUV" country="PL" region="4" frequency="1456875" band="2m" ctcss="67" tx_power="15" city="KO13MV" locator="KO13MU" type="FM" status="PLANED" latitude="53.836155" longitude="23.004719" opening="CTCSS" echolink="" URL="https://przemienniki.net/przemienniki/2m/SR4AUV"/>
 <repeater callsign="SR4BA" country="PL" region="4" frequency="4385375" band="70cm" ctcss="67" tx_power="15" city="Bartoszyce" locator="KO04JH" type="FM" status="OPERATIONAL" latitude="54.301463" longitude="20.753709" opening="CTCSS" echolink="193045" URL="https://przemienniki.net/przemienniki/70cm/SR4BA"/>
 <repeater callsign="SR4BAU" country="PL" region="4" frequency="4383625" band="70cm" ctcss="0" tx_power="15" city="Augustow" locator="KO13LU" type="DMR" status="OFF" latitude="53.837154" longitude="22.979150" opening="CARRIER" echolink="" URL="https://przemienniki.net/przemienniki/70cm/SR4BAU"/>
 <repeater callsign="SR4BF" country="PL" region="4" frequency="4388000" band="70cm" ctcss="0" tx_power="15" city="Brzóski Falki" locator="KO12GW" type="DMR" status="OPERATIONAL" latitude="52.916841" longitude="22.539238" opening="CARRIER" echolink="" URL="https://przemienniki.net/przemienniki/70cm/SR4BF"/>
 <repeater callsign="SR4BI" country="PL" region="4" frequency="4384625" band="70cm" ctcss="67" tx_power="15" city="Juchnowiec" locator="KO13NA" type="FM" status="OPERATIONAL" latitude="53.015542" longitude="23.135219" opening="CTCSS" echolink="" URL="https://przemienniki.net/przemienniki/70cm/SR4BI"/>
 <repeater callsign="SR4BIA" country="PL" region="4" frequency="4392500" band="70cm" ctcss="0" tx_power="15" city="Bialystok" locator="KO13OC" type="DMR" status="OFF" latitude="53.107935" longitude="23.184082" opening="CARRIER" echolink="" URL="https://przemienniki.net/przemienniki/70cm/SR4BIA"/>
 <repeater callsign="SR4BK" country="PL" region="4" frequency="4389250" band="70cm" ctcss="0" tx_power="10" city="Bialystok, Politechnika Bialostocka" locator="KO13NC" type="FM" status="OFF" latitude="53.119480" longitude="23.152000" opening="CARRIER" echolink="" URL="https://przemienniki.net/przemienniki/70cm/SR4BK"/>
 <repeater callsign="SR4BL" country="PL" region="4" frequency="4386000" band="70cm" ctcss="67" tx_power="15" city="Lomza" locator="KO13AE" type="FM" status="PLANED" latitude="53.172613" longitude="22.039165" opening="CTCSS" echolink="" URL="https://przemienniki.net/przemienniki/70cm/SR4BL"/>
 <repeater callsign="SR4BS" country="PL" region="4" frequency="4390250" band="70cm" ctcss="67" tx_power="15" city="Bialystok" locator="KO13ND" type="FM" status="OPERATIONAL" latitude="53.132887" longitude="23.138298" opening="CTCSS" echolink="" URL="https://przemienniki.net/przemienniki/70cm/SR4BS"/>
 <repeater callsign="SR4BSK" country="PL" region="4" frequency="4384875" band="70cm" ctcss="0" tx_power="15" city="Sokólka" locator="KO13SJ" type="DMR" status="OFF" latitude="0.000000" longitude="0.000000" opening="CARRIER" echolink="" URL="https://przemienniki.net/przemienniki/70cm/SR4BSK"/>
 <repeater callsign="SR4C4FM" country="PL" region="4" frequency="4325750" band="70cm" ctcss="0" tx_power="5" city="Białystok" locator="KO13ND" type="APCO-25" status="OPERATIONAL" latitude="0.000000" longitude="0.000000" opening="CARRIER" echolink="" URL="https://przemienniki.net/przemienniki/70cm/SR4C4FM"/>
 <repeater callsign="SR4D" country="PL" region="4" frequency="1457875" band="2m" ctcss="67" tx_power="10" city="Milki k/Gizycka EMITEL" locator="KO03WW" type="FM" status="OPERATIONAL" latitude="53.937727" longitude="21.844764" opening="CTCSS" echolink="453582" URL="https://przemienniki.net/przemienniki/2m/SR4D"/>
 <repeater callsign="SR4DG" country="PL" region="4" frequency="4388625" band="70cm" ctcss="0" tx_power="15" city="Gora Dylewska EMITEL" locator="JO93XN" type="APCO-25" status="OPERATIONAL" latitude="53.549375" longitude="19.940454" opening="CARRIER" echolink="" URL="https://przemienniki.net/przemienniki/70cm/SR4DG"/>
 <repeater callsign="SR4DGD" country="PL" region="4" frequency="4382500" band="70cm" ctcss="0" tx_power="15" city="Gora Dylewska EMITEL" locator="JO93XN" type="DMR" status="OPERATIONAL" latitude="53.549375" longitude="19.940454" opening="CARRIER" echolink="" URL="https://przemienniki.net/przemienniki/70cm/SR4DGD"/>
 <repeater callsign="SR4DGT" country="PL" region="4" frequency="4385750" band="70cm" ctcss="67" tx_power="15" city="Gora Dylewska EMITEL" locator="JO93XN" type="FM" status="OPERATIONAL" latitude="53.549375" longitude="19.940454" opening="CTCSS" echolink="" URL="https://przemienniki.net/przemienniki/70cm/SR4DGT"/>
 <repeater callsign="SR4DM" country="PL" region="4" frequency="4383000" band="70cm" ctcss="67" tx_power="15" city="Dobre Miasto" locator="KO03FW" type="FM" status="OFF" latitude="53.931698" longitude="20.498333" opening="CTCSS" echolink="123475" URL="https://przemienniki.net/przemienniki/70cm/SR4DM"/>
 <repeater callsign="SR4DMR" country="PL" region="4" frequency="4386125" band="70cm" ctcss="0" tx_power="15" city="Elk" locator="KO13ET" type="FM" status="UNKNOWN" latitude="53.815738" longitude="22.375785" opening="CARRIER" echolink="" URL="https://przemienniki.net/przemienniki/70cm/SR4DMR"/>
 <repeater callsign="SR4DX" country="PL" region="4" frequency="4395000" band="70cm" ctcss="0" tx_power="15" city="Paslek" locator="JO94TB" type="DMR" status="OPERATIONAL" latitude="54.060989" longitude="19.618992" opening="CARRIER" echolink="" URL="https://przemienniki.net/przemienniki/70cm/SR4DX"/>
 <repeater callsign="SR4EL" country="PL" region="4" frequency="4390500" band="70cm" ctcss="94.8" tx_power="15" city="Elblag" locator="JO94QE" type="FM" status="OPERATIONAL" latitude="54.189015" longitude="19.394187" opening="CTCSS" echolink="" URL="https://przemienniki.net/przemienniki/70cm/SR4EL"/>
 <repeater callsign="SR4FSK" country="PL" region="4" frequency="4395250" band="70cm" ctcss="0" tx_power="15" city="Grajewo" locator="KO13FP" type="APCO-25" status="OFF" latitude="53.635713" longitude="22.467744" opening="CARRIER" echolink="" URL="https://przemienniki.net/przemienniki/70cm/SR4FSK"/>
 <repeater callsign="SR4H" country="PL" region="4" frequency="4392375" band="70cm" ctcss="67" tx_power="5" city="Hajnówka" locator="KO12TS" type="FM" status="OFF" latitude="0.000000" longitude="0.000000" opening="CTCSS" echolink="" URL="https://przemienniki.net/przemienniki/70cm/SR4H"/>
 <repeater callsign="SR4IL" country="PL" region="4" frequency="4382125" band="70cm" ctcss="67" tx_power="15" city="Iława" locator="JO93SO" type="FM" status="PLANED" latitude="0.000000" longitude="0.000000" opening="CTCSS" echolink="" URL="https://przemienniki.net/przemienniki/70cm/SR4IL"/>
 <repeater callsign="SR4J" country="PL" region="4" frequency="1456250" band="2m" ctcss="67" tx_power="15" city="Gora Dylewska EMITEL" locator="JO93XN" type="FM" status="OPERATIONAL" latitude="53.549375" longitude="19.940454" opening="CTCSS" echolink="957093" URL="https://przemienniki.net/przemienniki/2m/SR4J"/>
 <repeater callsign="SR4KT" country="PL" region="4" frequency="4392750" band="70cm" ctcss="0" tx_power="15" city="Ketrzyn" locator="KO04QB" type="DMR" status="OPERATIONAL" latitude="54.081550" longitude="21.370446" opening="CARRIER" echolink="" URL="https://przemienniki.net/przemienniki/70cm/SR4KT"/>
 <repeater callsign="SR4L" country="PL" region="4" frequency="4381000" band="70cm" ctcss="0" tx_power="15" city="Lomza" locator="KO13AE" type="DSTAR" status="OPERATIONAL" latitude="53.183005" longitude="22.052192" opening="CARRIER" echolink="" URL="https://przemienniki.net/przemienniki/70cm/SR4L"/>
 <repeater callsign="SR4LDG" country="PL" region="4" frequency="12982000" band="23cm" ctcss="67" tx_power="15" city="Gora Dylewska EMITEL" locator="JO93XN" type="FM" status="OFF" latitude="53.549375" longitude="19.940454" opening="CTCSS" echolink="" URL="https://przemienniki.net/przemienniki/23cm/SR4LDG"/>
 <repeater callsign="SR4LG" country="PL" region="4" frequency="4387250" band="70cm" ctcss="67" tx_power="10" city="Gielczyn" locator="KO13AD" type="FM" status="OPERATIONAL" latitude="53.129161" longitude="22.080552" opening="CTCSS" echolink="" URL="https://przemienniki.net/przemienniki/70cm/SR4LG"/>
 <repeater callsign="SR4LIN" country="PL" region="4" frequency="4386500" band="70cm" ctcss="0" tx_power="" city="Jerzwald" locator="JO93SS" type="APCO-25" status="OPERATIONAL" latitude="53.790664" longitude="19.536485" opening="CARRIER" echolink="" URL="https://przemienniki.net/przemienniki/70cm/SR4LIN"/>
 <repeater callsign="SR4LM" country="PL" region="4" frequency="12986000" band="23cm" ctcss="0" tx_power="15" city="Milki k/Gizycka EMITEL" locator="KO03WW" type="FM" status="PLANED" latitude="53.937727" longitude="21.844764" opening="1750HZ" echolink="" URL="https://przemienniki.net/przemienniki/23cm/SR4LM"/>
 <repeater callsign="SR4LO" country="PL" region="4" frequency="4391000" band="70cm" ctcss="67" tx_power="10" city="Lomza - maszt" locator="KO13BD" type="FM" status="OPERATIONAL" latitude="53.159484" longitude="22.091746" opening="CTCSS" echolink="" URL="https://przemienniki.net/przemienniki/70cm/SR4LO"/>
 <repeater callsign="SR4LU" country="PL" region="4" frequency="4393750" band="70cm" ctcss="67" tx_power="15" city="Lubawa" locator="JO93VL" type="FM" status="OPERATIONAL" latitude="53.478352" longitude="19.764669" opening="CTCSS" echolink="1212123" URL="https://przemienniki.net/przemienniki/70cm/SR4LU"/>
 <repeater callsign="SR4M" country="PL" region="4" frequency="1456000" band="2m" ctcss="67" tx_power="4" city="Milki k/Gizycka EMITEL" locator="KO03WW" type="FM" status="OFF" latitude="53.937727" longitude="21.844764" opening="CTCSS" echolink="491402" URL="https://przemienniki.net/przemienniki/2m/SR4M"/>
 <repeater callsign="SR4MI" country="PL" region="4" frequency="4387500" band="70cm" ctcss="67" tx_power="10" city="Milki k/Gizycka EMITEL" locator="KO03WW" type="FM" status="OPERATIONAL" latitude="53.937727" longitude="21.844764" opening="CTCSS" echolink="" URL="https://przemienniki.net/przemienniki/70cm/SR4MI"/>
 <repeater callsign="SR4MID" country="PL" region="4" frequency="4382250" band="70cm" ctcss="0" tx_power="15" city="Milki k/Gizycka EMITEL" locator="KO03WW" type="DMR" status="OPERATIONAL" latitude="53.937727" longitude="21.844764" opening="CARRIER" echolink="" URL="https://przemienniki.net/przemienniki/70cm/SR4MID"/>
 <repeater callsign="SR4MIT" country="PL" region="4" frequency="4385250" band="70cm" ctcss="0" tx_power="15" city="Milki k/Gizycka EMITEL" locator="KO03WW" type="APCO-25" status="OPERATIONAL" latitude="53.937727" longitude="21.844764" opening="CARRIER" echolink="" URL="https://przemienniki.net/przemienniki/70cm/SR4MIT"/>
 <repeater callsign="SR4MO" country="PL" region="4" frequency="4384500" band="70cm" ctcss="67" tx_power="15" city="Morag" locator="JO93XV" type="FM" status="OPERATIONAL" latitude="53.913509" longitude="19.928902" opening="CTCSS" echolink="122434" URL="https://przemienniki.net/przemienniki/70cm/SR4MO"/>
 <repeater callsign="SR4MR" country="PL" region="4" frequency="4391500" band="70cm" ctcss="67" tx_power="15" city="Mragowo" locator="KO03PU" type="FM" status="OFF" latitude="53.517800" longitude="21.178700" opening="CTCSS" echolink="" URL="https://przemienniki.net/przemienniki/70cm/SR4MR"/>
 <repeater callsign="SR4MWO" country="PL" region="4" frequency="4381500" band="70cm" ctcss="67" tx_power="5" city="Mragowo" locator="KO03PU" type="DSTAR" status="OPERATIONAL" latitude="53.866333" longitude="21.285911" opening="CTCSS" echolink="" URL="https://przemienniki.net/przemienniki/70cm/SR4MWO"/>
 <repeater callsign="SR4O" country="PL" region="4" frequency="1457250" band="2m" ctcss="0" tx_power="10" city="Olsztyn" locator="KO03GS" type="FM" status="OPERATIONAL" latitude="53.773118" longitude="20.513320" opening="1750HZ" echolink="" URL="https://przemienniki.net/przemienniki/2m/SR4O"/>
 <repeater callsign="SR4OE" country="PL" region="4" frequency="4394000" band="70cm" ctcss="0" tx_power="15" city="Olecko" locator="KO14GA" type="APCO-25" status="OPERATIONAL" latitude="54.035498" longitude="22.500114" opening="CARRIER" echolink="" URL="https://przemienniki.net/przemienniki/70cm/SR4OE"/>
 <repeater callsign="SR4OEX" country="PL" region="4" frequency="1456875" band="" ctcss="67" tx_power="15" city="Olecko" locator="KO14FA" type="FM" status="PLANED" latitude="54.025626" longitude="22.492029" opening="CTCSS" echolink="" URL="https://przemienniki.net/przemienniki//SR4OEX"/>
 <repeater callsign="SR4OEX" country="PL" region="4" frequency="1456875" band="2m" ctcss="67" tx_power="" city="Olecko" locator="KO14FA" type="FM" status="PLANED" latitude="54.025626" longitude="22.492029" opening="CTCSS" echolink="" URL="https://przemienniki.net/przemienniki/2m/SR4OEX"/>
 <repeater callsign="SR4OL" country="PL" region="4" frequency="4385125" band="70cm" ctcss="67" tx_power="15" city="Olsztynek" locator="KO03DN" type="FM" status="PLANED" latitude="0.000000" longitude="0.000000" opening="CTCSS" echolink="" URL="https://przemienniki.net/przemienniki/70cm/SR4OL"/>
 <repeater callsign="SR4ON" country="PL" region="4" frequency="4386750" band="70cm" ctcss="67" tx_power="10" city="Olsztyn" locator="KO03FS" type="FM" status="OPERATIONAL" latitude="53.770592" longitude="20.490134" opening="CTCSS" echolink="289049" URL="https://przemienniki.net/przemienniki/70cm/SR4ON"/>
 <repeater callsign="SR4OND" country="PL" region="4" frequency="4385000" band="70cm" ctcss="0" tx_power="10" city="Olsztyn" locator="KO03FS" type="DMR" status="OPERATIONAL" latitude="53.770592" longitude="20.490134" opening="CARRIER" echolink="" URL="https://przemienniki.net/przemienniki/70cm/SR4OND"/>
 <repeater callsign="SR4ONT" country="PL" region="4" frequency="4382750" band="70cm" ctcss="0" tx_power="15" city="Olsztyn" locator="KO03GS" type="DMR" status="PLANED" latitude="53.773118" longitude="20.513320" opening="CARRIER" echolink="" URL="https://przemienniki.net/przemienniki/70cm/SR4ONT"/>
 <repeater callsign="SR4ONX" country="PL" region="4" frequency="4389500" band="70cm" ctcss="0" tx_power="15" city="Olsztyn" locator="KO03GS" type="DSTAR" status="PLANED" latitude="53.773118" longitude="20.513320" opening="CARRIER" echolink="" URL="https://przemienniki.net/przemienniki/70cm/SR4ONX"/>
 <repeater callsign="SR4OS" country="PL" region="4" frequency="4384000" band="70cm" ctcss="67" tx_power="15" city="Ostroda" locator="JO93XQ" type="FM" status="OPERATIONAL" latitude="53.691595" longitude="19.968970" opening="CTCSS" echolink="123474" URL="https://przemienniki.net/przemienniki/70cm/SR4OS"/>
 <repeater callsign="SR4PA" country="PL" region="4" frequency="4390000" band="70cm" ctcss="94.8" tx_power="15" city="Paslek, pow. elblaski" locator="JO94TB" type="FM" status="OPERATIONAL" latitude="54.056859" longitude="19.657980" opening="CTCSS" echolink="" URL="https://przemienniki.net/przemienniki/70cm/SR4PA"/>
 <repeater callsign="SR4PA" country="PL" region="4" frequency="1457750" band="2m" ctcss="94.8" tx_power="15" city="Paslek" locator="JO94UA" type="FM" status="OPERATIONAL" latitude="54.025593" longitude="19.694711" opening="CTCSS" echolink="" URL="https://przemienniki.net/przemienniki/2m/SR4PA"/>
 <repeater callsign="SR4PL" country="PL" region="4" frequency="4395750" band="70cm" ctcss="67" tx_power="" city="Podlesna 66" locator="KO03FW" type="FM" status="OPERATIONAL" latitude="53.938000" longitude="20.458000" opening="CTCSS" echolink="" URL="https://przemienniki.net/przemienniki/70cm/SR4PL"/>
 <repeater callsign="SR4RS" country="PL" region="4" frequency="1457000" band="2m" ctcss="67" tx_power="15" city="Bialystok" locator="KO13OD" type="FM" status="OPERATIONAL" latitude="53.134117" longitude="23.172523" opening="CTCSS" echolink="" URL="https://przemienniki.net/przemienniki/2m/SR4RS"/>
 <repeater callsign="SR4S" country="PL" region="4" frequency="1455750" band="2m" ctcss="67" tx_power="15" city="Sokolka" locator="KO13RJ" type="FM" status="OPERATIONAL" latitude="53.409137" longitude="23.484552" opening="CTCSS" echolink="" URL="https://przemienniki.net/przemienniki/2m/SR4S"/>
 <repeater callsign="SR4SA" country="PL" region="4" frequency="4393750" band="70cm" ctcss="67" tx_power="15" city="Sokolka" locator="KO13RJ" type="FM" status="OPERATIONAL" latitude="53.409137" longitude="23.484552" opening="CTCSS" echolink="" URL="https://przemienniki.net/przemienniki/70cm/SR4SA"/>
 <repeater callsign="SR4SN" country="PL" region="4" frequency="4388750" band="70cm" ctcss="67" tx_power="15" city="Szczytno" locator="KO03MN" type="DSTAR" status="OPERATIONAL" latitude="53.564684" longitude="21.000160" opening="CTCSS" echolink="" URL="https://przemienniki.net/przemienniki/70cm/SR4SN"/>
 <repeater callsign="SR4ST" country="PL" region="4" frequency="4392000" band="70cm" ctcss="67" tx_power="" city="Skitlawki" locator="JO93TT" type="FM" status="PLANED" latitude="53.813000" longitude="19.625000" opening="CTCSS" echolink="" URL="https://przemienniki.net/przemienniki/70cm/SR4ST"/>
 <repeater callsign="SR4SU" country="PL" region="4" frequency="4388000" band="70cm" ctcss="67" tx_power="15" city="Jeleniewo" locator="KO14KE" type="FM" status="OPERATIONAL" latitude="54.196059" longitude="22.872801" opening="CTCSS" echolink="" URL="https://przemienniki.net/przemienniki/70cm/SR4SU"/>
 <repeater callsign="SR4SUU" country="PL" region="4" frequency="4389000" band="70cm" ctcss="0" tx_power="" city="Suwalki, ul. Mickiewicza 15" locator="KO14LC" type="FM" status="OFF" latitude="54.098344" longitude="22.924715" opening="CARRIER" echolink="" URL="https://przemienniki.net/przemienniki/70cm/SR4SUU"/>
 <repeater callsign="SR4SUW" country="PL" region="4" frequency="4347000" band="70cm" ctcss="67" tx_power="" city="Suwalki" locator="KO14LC" type="FM" status="OPERATIONAL" latitude="54.121300" longitude="22.947000" opening="CTCSS" echolink="" URL="https://przemienniki.net/przemienniki/70cm/SR4SUW"/>
 <repeater callsign="SR4SW" country="PL" region="4" frequency="4393250" band="70cm" ctcss="0" tx_power="10" city="Swietajno" locator="KO03ON" type="FM" status="OFF" latitude="53.563494" longitude="21.219062" opening="CARRIER" echolink="" URL="https://przemienniki.net/przemienniki/70cm/SR4SW"/>
 <repeater callsign="SR4SWE" country="PL" region="4" frequency="4394500" band="70cm" ctcss="0" tx_power="15" city="Swietajno" locator="KO03ON" type="DSTAR" status="OFF" latitude="53.563494" longitude="21.219062" opening="CARRIER" echolink="" URL="https://przemienniki.net/przemienniki/70cm/SR4SWE"/>
 <repeater callsign="SR4T" country="PL" region="4" frequency="1457625" band="2m" ctcss="94.8" tx_power="" city="Turcz" locator="KO04LG" type="FM" status="OPERATIONAL" latitude="54.278961" longitude="20.941559" opening="CTCSS" echolink="" URL="https://przemienniki.net/przemienniki/2m/SR4T"/>
 <repeater callsign="SR4U" country="PL" region="4" frequency="1457250" band="2m" ctcss="0" tx_power="10" city="Bialystok" locator="KO13NC" type="FM" status="OPERATIONAL" latitude="53.126860" longitude="23.157113" opening="CARRIER" echolink="" URL="https://przemienniki.net/przemienniki/2m/SR4U"/>
 <repeater callsign="SR4UBI" country="PL" region="4" frequency="4394250" band="70cm" ctcss="0" tx_power="10" city="Bialystok" locator="KO13ND" type="DSTAR" status="OPERATIONAL" latitude="53.132887" longitude="23.138298" opening="CARRIER" echolink="" URL="https://przemienniki.net/przemienniki/70cm/SR4UBI"/>
 <repeater callsign="SR4UG" country="PL" region="4" frequency="4387750" band="70cm" ctcss="0" tx_power="15" city="Giby" locator="KO14QA" type="DSTAR" status="OPERATIONAL" latitude="0.000000" longitude="0.000000" opening="CARRIER" echolink="" URL="https://przemienniki.net/przemienniki/70cm/SR4UG"/>
 <repeater callsign="SR4UVD" country="PL" region="4" frequency="4395125" band="70cm" ctcss="0" tx_power="15" city="Gora Dylewska EMITEL" locator="JO93XN" type="DSTAR" status="OPERATIONAL" latitude="53.549375" longitude="19.940454" opening="CARRIER" echolink="" URL="https://przemienniki.net/przemienniki/70cm/SR4UVD"/>
 <repeater callsign="SR4UVE" country="PL" region="4" frequency="4386000" band="70cm" ctcss="94.8" tx_power="15" city="Paslek" locator="JO94TB" type="FM" status="OPERATIONAL" latitude="54.047551" longitude="19.621930" opening="CTCSS" echolink="" URL="https://przemienniki.net/przemienniki/70cm/SR4UVE"/>
 <repeater callsign="SR4UVM" country="PL" region="4" frequency="4394875" band="70cm" ctcss="0" tx_power="15" city="Milki k/Gizycka EMITEL" locator="KO03WW" type="DSTAR" status="OPERATIONAL" latitude="53.937727" longitude="21.844764" opening="CARRIER" echolink="" URL="https://przemienniki.net/przemienniki/70cm/SR4UVM"/>
 <repeater callsign="SR4UVN" country="PL" region="4" frequency="4394625" band="70cm" ctcss="0" tx_power="10" city="Olsztyn" locator="KO03FS" type="DSTAR" status="OPERATIONAL" latitude="53.770592" longitude="20.490134" opening="CARRIER" echolink="" URL="https://przemienniki.net/przemienniki/70cm/SR4UVN"/>
 <repeater callsign="SR4WA" country="PL" region="4" frequency="4381250" band="70cm" ctcss="67" tx_power="" city="Wawrowice" locator="JO93RK" type="FM" status="TESTING" latitude="53.438000" longitude="19.458000" opening="CTCSS" echolink="" URL="https://przemienniki.net/przemienniki/70cm/SR4WA"/>
 <repeater callsign="SR4X" country="PL" region="4" frequency="1456000" band="2m" ctcss="67" tx_power="15" city="Juchnowiec" locator="KO13NA" type="FM" status="OPERATIONAL" latitude="53.015657" longitude="23.135085" opening="CTCSS" echolink="" URL="https://przemienniki.net/przemienniki/2m/SR4X"/>
 <repeater callsign="SR5AWK" country="PL" region="5" frequency="4316125" band="70cm" ctcss="0" tx_power="10" city="Warszawa" locator="KO02MD" type="C4FM/Fusion" status="OPERATIONAL" latitude="52.131170" longitude="21.055902" opening="CARRIER" echolink="" URL="https://przemienniki.net/przemienniki/70cm/SR5AWK"/>
 <repeater callsign="SR5CI" country="PL" region="5" frequency="4384375" band="70cm" ctcss="127.3" tx_power="15" city="Ciechanow" locator="KO02HV" type="FM" status="OPERATIONAL" latitude="52.884450" longitude="20.602777" opening="CTCSS" echolink="" URL="https://przemienniki.net/przemienniki/70cm/SR5CI"/>
 <repeater callsign="SR5DMR" country="PL" region="5" frequency="4382125" band="70cm" ctcss="0" tx_power="15" city="06-461 Koziczyn 46" locator="KO02IX" type="DMR" status="OPERATIONAL" latitude="52.980992" longitude="20.677636" opening="CARRIER" echolink="" URL="https://przemienniki.net/przemienniki/70cm/SR5DMR"/>
 <repeater callsign="SR5DMRC" country="PL" region="5" frequency="1456375" band="2m" ctcss="0" tx_power="8" city="06-461 Koziczyn 46" locator="KO02IX" type="DMR" status="OPERATIONAL" latitude="52.981000" longitude="20.677617" opening="CARRIER" echolink="" URL="https://przemienniki.net/przemienniki/2m/SR5DMRC"/>
 <repeater callsign="SR5DV" country="PL" region="5" frequency="1455875" band="2m" ctcss="127.3" tx_power="5" city="" locator="KO02SD" type="FM" status="PLANED" latitude="52.152627" longitude="21.564994" opening="CTCSS" echolink="" URL="https://przemienniki.net/przemienniki/2m/SR5DV"/>
 <repeater callsign="SR5DVR" country="PL" region="5" frequency="4393625" band="70cm" ctcss="0" tx_power="15" city="RADOM - maszt Emitel" locator="KO01NJ" type="DMR" status="OPERATIONAL" latitude="51.408264" longitude="21.113534" opening="CARRIER" echolink="" URL="https://przemienniki.net/przemienniki/70cm/SR5DVR"/>
 <repeater callsign="SR5E" country="PL" region="5" frequency="4393750" band="70cm" ctcss="127.3" tx_power="15" city="Warszawa-Ochota" locator="KO02LF" type="FM" status="OPERATIONAL" latitude="52.210948" longitude="20.975166" opening="CTCSS" echolink="" URL="https://przemienniki.net/przemienniki/70cm/SR5E"/>
 <repeater callsign="SR5ECHO" country="PL" region="5" frequency="1457000" band="2m" ctcss="0" tx_power="" city="WARSZAWA" locator="KO02KE" type="FM" status="TESTING" latitude="52.188000" longitude="20.875000" opening="CARRIER" echolink="" URL="https://przemienniki.net/przemienniki/2m/SR5ECHO"/>
 <repeater callsign="SR5ECHO" country="PL" region="5" frequency="4391500" band="70cm" ctcss="0" tx_power="" city="Warszawa" locator="KO02KE" type="FM" status="TESTING" latitude="52.188000" longitude="20.875000" opening="CARRIER" echolink="" URL="https://przemienniki.net/przemienniki/70cm/SR5ECHO"/>
 <repeater callsign="SR5FUS" country="PL" region="5" frequency="4381500" band="70cm" ctcss="0" tx_power="15" city="Radom" locator="KO01NK" type="APCO-25" status="OPERATIONAL" latitude="51.421913" longitude="21.163807" opening="CARRIER" echolink="" URL="https://przemienniki.net/przemienniki/70cm/SR5FUS"/>
 <repeater callsign="SR5FWG" country="PL" region="5" frequency="4382500" band="70cm" ctcss="127.3" tx_power="10" city="Garwolin" locator="KO01TV" type="FM" status="OPERATIONAL" latitude="51.901273" longitude="21.614472" opening="CTCSS" echolink="" URL="https://przemienniki.net/przemienniki/70cm/SR5FWG"/>
 <repeater callsign="SR5GM" country="PL" region="5" frequency="4392250" band="70cm" ctcss="127.3" tx_power="" city="Grodzisk Mazowiecki" locator="KO02HC" type="FM" status="OPERATIONAL" latitude="0.000000" longitude="0.000000" opening="CTCSS" echolink="" URL="https://przemienniki.net/przemienniki/70cm/SR5GM"/>
 <repeater callsign="SR5GR" country="PL" region="5" frequency="4388000" band="70cm" ctcss="127.3" tx_power="15" city="GROJEC, ul. PILSUDSKIEGO 6" locator="KO01KU" type="FM" status="OFF" latitude="51.865339" longitude="20.869367" opening="CTCSS" echolink="" URL="https://przemienniki.net/przemienniki/70cm/SR5GR"/>
 <repeater callsign="SR5ID" country="PL" region="5" frequency="4390375" band="70cm" ctcss="127.3" tx_power="15" city="Kuflew" locator="KO02VC" type="FM" status="PLANED" latitude="52.101806" longitude="21.811093" opening="CTCSS" echolink="" URL="https://przemienniki.net/przemienniki/70cm/SR5ID"/>
 <repeater callsign="SR5KAB" country="PL" region="5" frequency="4394000" band="70cm" ctcss="0" tx_power="15" city="Warszawa" locator="KO02MF" type="DMR" status="OFF" latitude="52.219587" longitude="21.017187" opening="CARRIER" echolink="" URL="https://przemienniki.net/przemienniki/70cm/SR5KAB"/>
 <repeater callsign="SR5KO" country="PL" region="5" frequency="4392000" band="70cm" ctcss="118.8" tx_power="10" city="Kozienice" locator="KO01SN" type="FM" status="OFF" latitude="51.561205" longitude="21.566980" opening="CTCSS" echolink="78889" URL="https://przemienniki.net/przemienniki/70cm/SR5KO"/>
 <repeater callsign="SR5KP" country="PL" region="5" frequency="29680" band="" ctcss="127.3" tx_power="50" city="Moszna-Parcela komin Elektrociepłowni Pruszków II" locator="KO02IE" type="FM" status="OFF" latitude="52.175313" longitude="20.742929" opening="CTCSS" echolink="" URL="https://przemienniki.net/przemienniki//SR5KP"/>
 <repeater callsign="SR5KP" country="PL" region="5" frequency="29680" band="10m" ctcss="127.3" tx_power="" city="Moszna-Parcela komin Elektrocieplowni Pruszkow II" locator="KO02IE" type="FM" status="OFF" latitude="52.175313" longitude="20.742929" opening="CTCSS" echolink="" URL="https://przemienniki.net/przemienniki/10m/SR5KP"/>
 <repeater callsign="SR5KPN" country="PL" region="5" frequency="4382000" band="10m" ctcss="127.3" tx_power="10" city="Zamczysko" locator="KO02GH" type="FM" status="OPERATIONAL" latitude="52.298630" longitude="20.530593" opening="CTCSS" echolink="207254" URL="https://przemienniki.net/przemienniki/10m/SR5KPN"/>
 <repeater callsign="SR5KPN" country="PL" region="5" frequency="4382000" band="70cm" ctcss="127.3" tx_power="" city="Zamczysko" locator="KO02GH" type="FM" status="OPERATIONAL" latitude="52.298630" longitude="20.530593" opening="CTCSS" echolink="" URL="https://przemienniki.net/przemienniki/70cm/SR5KPN"/>
 <repeater callsign="SR5LOM" country="PL" region="5" frequency="12984000" band="23cm" ctcss="0" tx_power="16" city="Łomianki" locator="KO02KI" type="FM" status="PLANED" latitude="52.341110" longitude="20.884300" opening="CARRIER" echolink="" URL="https://przemienniki.net/przemienniki/23cm/SR5LOM"/>
 <repeater callsign="SR5LW" country="PL" region="5" frequency="12981000" band="23cm" ctcss="0" tx_power="10" city="Pruszkow" locator="KO02JD" type="FM" status="OFF" latitude="52.158720" longitude="20.817880" opening="CARRIER" echolink="" URL="https://przemienniki.net/przemienniki/23cm/SR5LW"/>
 <repeater callsign="SR5MDV" country="PL" region="5" frequency="4388875" band="70cm" ctcss="0" tx_power="5" city="Minsk Mazowiecki" locator="KO02SE" type="DMR" status="OPERATIONAL" latitude="52.177192" longitude="21.552627" opening="CARRIER" echolink="" URL="https://przemienniki.net/przemienniki/70cm/SR5MDV"/>
 <repeater callsign="SR5MM" country="PL" region="5" frequency="4389500" band="70cm" ctcss="127.3" tx_power="15" city="Minsk Mazowiecki" locator="KO02SE" type="FM" status="OPERATIONAL" latitude="52.177192" longitude="21.552627" opening="CTCSS" echolink="318140" URL="https://przemienniki.net/przemienniki/70cm/SR5MM"/>
 <repeater callsign="SR5MS" country="PL" region="5" frequency="4388125" band="70cm" ctcss="0" tx_power="15" city="Nowy Dwor Mazowiecki" locator="KO02JK" type="" status="OPERATIONAL" latitude="52.425343" longitude="20.751385" opening="CARRIER" echolink="" URL="https://przemienniki.net/przemienniki/70cm/SR5MS"/>
 <repeater callsign="SR5ND" country="PL" region="5" frequency="4394250" band="70cm" ctcss="127.3" tx_power="10" city="Nowy Dwor Mazowiecki" locator="KO02IK" type="FM" status="OPERATIONAL" latitude="52.448234" longitude="20.707103" opening="CTCSS" echolink="" URL="https://przemienniki.net/przemienniki/70cm/SR5ND"/>
 <repeater callsign="SR5NRD" country="PL" region="5" frequency="4389750" band="70cm" ctcss="127.3" tx_power="" city="Cybulin" locator="KO02AL" type="FM" status="OPERATIONAL" latitude="52.480013" longitude="20.061837" opening="CTCSS" echolink="" URL="https://przemienniki.net/przemienniki/70cm/SR5NRD"/>
 <repeater callsign="SR5NRD" country="PL" region="5" frequency="4389750" band="" ctcss="127.3" tx_power="15" city="Cybulin" locator="KO02AL" type="FM" status="OPERATIONAL" latitude="52.480013" longitude="20.061837" opening="CTCSS" echolink="" URL="https://przemienniki.net/przemienniki//SR5NRD"/>
 <repeater callsign="SR5O" country="PL" region="5" frequency="1456750" band="2m" ctcss="127.3" tx_power="15" city="Ostroleka" locator="KO03SB" type="FM" status="OPERATIONAL" latitude="53.080352" longitude="21.569352" opening="CTCSS" echolink="" URL="https://przemienniki.net/przemienniki/2m/SR5O"/>
 <repeater callsign="SR5OK" country="PL" region="5" frequency="4392625" band="70cm" ctcss="0" tx_power="15" city="Kadzidlo" locator="KO03RF" type="DSTAR" status="OPERATIONAL" latitude="53.234690" longitude="21.456630" opening="CARRIER" echolink="55578" URL="https://przemienniki.net/przemienniki/70cm/SR5OK"/>
 <repeater callsign="SR5OMZ" country="PL" region="5" frequency="1457375" band="2m" ctcss="0" tx_power="15" city="Ciechanów" locator="KO02HV" type="DMR" status="OPERATIONAL" latitude="0.000000" longitude="0.000000" opening="CARRIER" echolink="" URL="https://przemienniki.net/przemienniki/2m/SR5OMZ"/>
 <repeater callsign="SR5OS" country="PL" region="5" frequency="4390500" band="70cm" ctcss="67" tx_power="10" city="Ostroleka" locator="KO03SB" type="FM" status="OPERATIONAL" latitude="53.080149" longitude="21.569180" opening="CTCSS" echolink="725031" URL="https://przemienniki.net/przemienniki/70cm/SR5OS"/>
 <repeater callsign="SR5P" country="PL" region="5" frequency="1457250" band="2m" ctcss="127.3" tx_power="12" city="Plock" locator="JO92UN" type="FM" status="OPERATIONAL" latitude="52.543202" longitude="19.715920" opening="CTCSS" echolink="" URL="https://przemienniki.net/przemienniki/2m/SR5P"/>
 <repeater callsign="SR5PL" country="PL" region="5" frequency="4391250" band="70cm" ctcss="127.3" tx_power="12" city="Plock" locator="JO92UN" type="FM" status="OPERATIONAL" latitude="52.544455" longitude="19.719648" opening="CTCSS" echolink="" URL="https://przemienniki.net/przemienniki/70cm/SR5PL"/>
 <repeater callsign="SR5PLZ" country="PL" region="5" frequency="4393875" band="70cm" ctcss="0" tx_power="8" city="Płock" locator="" type="DMR" status="OPERATIONAL" latitude="52.545196" longitude="19.716403" opening="OTHER" echolink="" URL="https://przemienniki.net/przemienniki/70cm/SR5PLZ"/>
 <repeater callsign="SR5PN" country="PL" region="5" frequency="1456625" band="2m" ctcss="127.3" tx_power="15" city="Plonsk" locator="KO02EO" type="FM" status="OFF" latitude="52.617660" longitude="20.353525" opening="CTCSS" echolink="" URL="https://przemienniki.net/przemienniki/2m/SR5PN"/>
 <repeater callsign="SR5POT" country="PL" region="5" frequency="4391500" band="70cm" ctcss="127.3" tx_power="15" city="Warszawa - Kaweczyn" locator="KO02NG" type="FM" status="OPERATIONAL" latitude="52.268443" longitude="21.125630" opening="CTCSS" echolink="" URL="https://przemienniki.net/przemienniki/70cm/SR5POT"/>
 <repeater callsign="SR5PR" country="PL" region="5" frequency="4391750" band="70cm" ctcss="0" tx_power="10" city="Pruszkow" locator="KO02JD" type="FM" status="OPERATIONAL" latitude="52.158506" longitude="20.817633" opening="CARRIER" echolink="220937" URL="https://przemienniki.net/przemienniki/70cm/SR5PR"/>
 <repeater callsign="SR5QDMR" country="PL" region="5" frequency="4385250" band="70cm" ctcss="0" tx_power="15" city="Siedlce" locator="KO12DD" type="DMR" status="OPERATIONAL" latitude="52.156559" longitude="22.276954" opening="CARRIER" echolink="" URL="https://przemienniki.net/przemienniki/70cm/SR5QDMR"/>
 <repeater callsign="SR5R" country="PL" region="5" frequency="1456000" band="2m" ctcss="127.3" tx_power="" city="Pruszkow" locator="KO02JD" type="FM" status="OPERATIONAL" latitude="52.158506" longitude="20.817633" opening="CTCSS" echolink="" URL="https://przemienniki.net/przemienniki/2m/SR5R"/>
 <repeater callsign="SR5RA" country="PL" region="5" frequency="4389250" band="70cm" ctcss="118.8" tx_power="10" city="Radom" locator="KO01NI" type="FM" status="OPERATIONAL" latitude="51.355087" longitude="21.099805" opening="CTCSS" echolink="" URL="https://przemienniki.net/przemienniki/70cm/SR5RA"/>
 <repeater callsign="SR5RAD" country="PL" region="5" frequency="1457875" band="2m" ctcss="118.8" tx_power="15" city="RADOM - maszt Emitel" locator="KO01NJ" type="FM" status="OPERATIONAL" latitude="51.408958" longitude="21.114788" opening="CTCSS" echolink="" URL="https://przemienniki.net/przemienniki/2m/SR5RAD"/>
 <repeater callsign="SR5RK" country="PL" region="5" frequency="4387500" band="70cm" ctcss="118.8" tx_power="15" city="Kozlowiec - Przysucha RTCN" locator="KO01GI" type="DSTAR" status="OPERATIONAL" latitude="51.358587" longitude="20.572206" opening="CTCSS" echolink="" URL="https://przemienniki.net/przemienniki/70cm/SR5RK"/>
 <repeater callsign="SR5RR" country="PL" region="5" frequency="4392750" band="70cm" ctcss="127.3" tx_power="15" city="Warszawa - Mokotow, ul. Iberyjska" locator="KO02ME" type="FM" status="OFF" latitude="52.178734" longitude="21.056765" opening="CTCSS" echolink="569465" URL="https://przemienniki.net/przemienniki/70cm/SR5RR"/>
 <repeater callsign="SR5S" country="PL" region="5" frequency="1456125" band="2m" ctcss="127.3" tx_power="15" city="Siedlce" locator="KO12DE" type="FM" status="OPERATIONAL" latitude="52.178818" longitude="22.271183" opening="CTCSS" echolink="593250" URL="https://przemienniki.net/przemienniki/2m/SR5S"/>
 <repeater callsign="SR5SE" country="PL" region="5" frequency="4387500" band="70cm" ctcss="127.3" tx_power="5" city="Siedlce" locator="KO12DE" type="FM" status="OPERATIONAL" latitude="52.178818" longitude="22.271183" opening="CTCSS" echolink="" URL="https://przemienniki.net/przemienniki/70cm/SR5SE"/>
 <repeater callsign="SR5SQ" country="PL" region="5" frequency="4389875" band="70cm" ctcss="0" tx_power="15" city="Krze Duze" locator="KO02HA" type="C4FM/Fusion" status="OPERATIONAL" latitude="52.007496" longitude="20.589476" opening="CARRIER" echolink="" URL="https://przemienniki.net/przemienniki/70cm/SR5SQ"/>
 <repeater callsign="SR5U" country="PL" region="5" frequency="1457750" band="2m" ctcss="0" tx_power="10" city="Warszawa Ursus" locator="KO02KE" type="FM" status="OPERATIONAL" latitude="52.194374" longitude="20.886109" opening="CARRIER" echolink="" URL="https://przemienniki.net/przemienniki/2m/SR5U"/>
 <repeater callsign="SR5UOS" country="PL" region="5" frequency="4389125" band="70cm" ctcss="0" tx_power="15" city="Ostroleka" locator="KO03SB" type="DSTAR" status="OPERATIONAL" latitude="53.080289" longitude="21.569459" opening="CARRIER" echolink="" URL="https://przemienniki.net/przemienniki/70cm/SR5UOS"/>
 <repeater callsign="SR5UR" country="PL" region="5" frequency="4393000" band="70cm" ctcss="127.3" tx_power="10" city="Warszawa Ursus" locator="KO02KE" type="FM" status="OPERATIONAL" latitude="52.194374" longitude="20.886109" opening="CTCSS" echolink="" URL="https://przemienniki.net/przemienniki/70cm/SR5UR"/>
 <repeater callsign="SR5UVA" country="PL" region="5" frequency="4394375" band="70cm" ctcss="0" tx_power="" city="Warszawa - komin EC Kaweczyn" locator="KO02NG" type="APCO-25" status="OFF" latitude="52.268254" longitude="21.128688" opening="CARRIER" echolink="" URL="https://przemienniki.net/przemienniki/70cm/SR5UVA"/>
 <repeater callsign="SR5UVR" country="PL" region="5" frequency="4385250" band="70cm" ctcss="0" tx_power="10" city="Radom" locator="KO01NJ" type="DSTAR" status="OPERATIONAL" latitude="51.406036" longitude="21.152552" opening="CARRIER" echolink="" URL="https://przemienniki.net/przemienniki/70cm/SR5UVR"/>
 <repeater callsign="SR5UZQ" country="PL" region="5" frequency="4388625" band="70cm" ctcss="0" tx_power="15" city="Krze Duże" locator="KO02HA" type="DSTAR" status="OPERATIONAL" latitude="52.007496" longitude="20.589476" opening="CARRIER" echolink="" URL="https://przemienniki.net/przemienniki/70cm/SR5UZQ"/>
 <repeater callsign="SR5VW" country="PL" region="5" frequency="4388250" band="70cm" ctcss="67" tx_power="10" city="Rozan EMITEL" locator="KO02QV" type="FM" status="OPERATIONAL" latitude="52.880556" longitude="21.400833" opening="CTCSS" echolink="" URL="https://przemienniki.net/przemienniki/70cm/SR5VW"/>
 <repeater callsign="SR5W" country="PL" region="5" frequency="1457500" band="2m" ctcss="127.3" tx_power="15" city="Warszawa - komin EC Kaweczyn" locator="KO02NG" type="FM" status="OPERATIONAL" latitude="52.268254" longitude="21.128688" opening="CTCSS" echolink="" URL="https://przemienniki.net/przemienniki/2m/SR5W"/>
 <repeater callsign="SR5WA" country="PL" region="5" frequency="4393500" band="70cm" ctcss="127.3" tx_power="15" city="Warszawa - komin EC Kaweczyn" locator="KO02NG" type="FM" status="OFF" latitude="52.268254" longitude="21.128688" opening="CTCSS" echolink="" URL="https://przemienniki.net/przemienniki/70cm/SR5WA"/>
 <repeater callsign="SR5WAD" country="PL" region="5" frequency="4383375" band="70cm" ctcss="127.3" tx_power="15" city="Warszawa - komin EC Kaweczyn" locator="KO02NG" type="FM" status="OFF" latitude="52.268254" longitude="21.128688" opening="CTCSS" echolink="" URL="https://przemienniki.net/przemienniki/70cm/SR5WAD"/>
 <repeater callsign="SR5WB" country="PL" region="5" frequency="4385500" band="70cm" ctcss="0" tx_power="15" city="Moszna-Parcela komin Elektrocieplowni Pruszkow II" locator="KO02IE" type="APCO-25" status="OFF" latitude="52.175313" longitude="20.742929" opening="CARRIER" echolink="" URL="https://przemienniki.net/przemienniki/70cm/SR5WB"/>
 <repeater callsign="SR5WC" country="PL" region="5" frequency="4386000" band="70cm" ctcss="0" tx_power="" city="Moszna-Parcela komin Elektrocieplowni Pruszkow II" locator="KO02IE" type="DSTAR" status="OPERATIONAL" latitude="52.175313" longitude="20.742929" opening="CARRIER" echolink="" URL="https://przemienniki.net/przemienniki/70cm/SR5WC"/>
 <repeater callsign="SR5WD" country="PL" region="5" frequency="4384000" band="70cm" ctcss="0" tx_power="15" city="Moszna-Parcela" locator="KO02IE" type="APCO-25" status="OFF" latitude="52.175313" longitude="20.742929" opening="CARRIER" echolink="" URL="https://przemienniki.net/przemienniki/70cm/SR5WD"/>
 <repeater callsign="SR5WF" country="PL" region="5" frequency="4392000" band="70cm" ctcss="0" tx_power="15" city="Warszawa" locator="KO02NF" type="DSTAR" status="PLANED" latitude="52.246944" longitude="21.086911" opening="CARRIER" echolink="" URL="https://przemienniki.net/przemienniki/70cm/SR5WF"/>
 <repeater callsign="SR5WI" country="PL" region="5" frequency="4389000" band="70cm" ctcss="0" tx_power="15" city="Warszawa" locator="KO02NF" type="C4FM/Fusion" status="OFF" latitude="52.241419" longitude="21.098156" opening="CARRIER" echolink="" URL="https://przemienniki.net/przemienniki/70cm/SR5WI"/>
 <repeater callsign="SR5WP" country="PL" region="5" frequency="4386250" band="70cm" ctcss="127.3" tx_power="" city="Moszna-Parcela komin Elektrocieplowni Pruszkow II" locator="KO02IE" type="FM" status="OPERATIONAL" latitude="52.175313" longitude="20.742929" opening="CTCSS" echolink="" URL="https://przemienniki.net/przemienniki/70cm/SR5WP"/>
 <repeater callsign="SR5WRX" country="PL" region="5" frequency="12985750" band="23cm" ctcss="0" tx_power="" city="Warszawa" locator="KO02LG" type="DSTAR" status="OPERATIONAL" latitude="52.270000" longitude="21.000000" opening="CARRIER" echolink="" URL="https://przemienniki.net/przemienniki/23cm/SR5WRX"/>
 <repeater callsign="SR5WU" country="PL" region="5" frequency="4387750" band="70cm" ctcss="0" tx_power="10" city="Warszawa-Ursynow" locator="KO02MD" type="DMR" status="OPERATIONAL" latitude="52.150552" longitude="21.042197" opening="CARRIER" echolink="" URL="https://przemienniki.net/przemienniki/70cm/SR5WU"/>
 <repeater callsign="SR5WW" country="PL" region="5" frequency="4385000" band="70cm" ctcss="0" tx_power="8" city="Warszawa - Komin EC Kaweczyn" locator="KO02NG" type="DMR" status="OPERATIONAL" latitude="52.268254" longitude="21.128688" opening="CARRIER" echolink="" URL="https://przemienniki.net/przemienniki/70cm/SR5WW"/>
 <repeater callsign="SR5WWL" country="PL" region="5" frequency="4384625" band="70cm" ctcss="127.3" tx_power="9" city="Marki" locator="KO02NI" type="FM" status="TESTING" latitude="52.362126" longitude="21.138649" opening="CTCSS" echolink="" URL="https://przemienniki.net/przemienniki/70cm/SR5WWL"/>
 <repeater callsign="SR5WZ" country="PL" region="5" frequency="4390000" band="70cm" ctcss="127.3" tx_power="" city="Moszna-Parcela komin Elektrocieplowni Pruszkow II" locator="KO02IE" type="FM" status="OPERATIONAL" latitude="52.175313" longitude="20.742929" opening="CTCSS" echolink="" URL="https://przemienniki.net/przemienniki/70cm/SR5WZ"/>
 <repeater callsign="SR5YAM" country="PL" region="5" frequency="4305375" band="70cm" ctcss="0" tx_power="10" city="Komorow" locator="KO02JD" type="DSTAR" status="OFF" latitude="52.146074" longitude="20.815292" opening="CARRIER" echolink="348241" URL="https://przemienniki.net/przemienniki/70cm/SR5YAM"/>
 <repeater callsign="SR5YM" country="PL" region="5" frequency="4383000" band="70cm" ctcss="0" tx_power="15" city="Komorow" locator="KO02JD" type="DSTAR" status="OFF" latitude="52.146074" longitude="20.815292" opening="CARRIER" echolink="" URL="https://przemienniki.net/przemienniki/70cm/SR5YM"/>
 <repeater callsign="SR5ZIP" country="PL" region="5" frequency="4392500" band="70cm" ctcss="127.3" tx_power="10" city="Warszawa" locator="KO02LG" type="FM" status="OPERATIONAL" latitude="52.284421" longitude="20.942390" opening="CTCSS" echolink="" URL="https://przemienniki.net/przemienniki/70cm/SR5ZIP"/>
 <repeater callsign="SR5ZOC" country="PL" region="5" frequency="1455870" band="2m" ctcss="127.3" tx_power="15" city="Nowosielec" locator="KO12IF" type="FM" status="OPERATIONAL" latitude="52.255278" longitude="22.745833" opening="CTCSS" echolink="" URL="https://przemienniki.net/przemienniki/2m/SR5ZOC"/>
 <repeater callsign="SR5ZU" country="PL" region="5" frequency="4387000" band="70cm" ctcss="88.5" tx_power="10" city="Zuromin" locator="JO93WB" type="FM" status="OPERATIONAL" latitude="53.064381" longitude="19.885142" opening="CTCSS" echolink="" URL="https://przemienniki.net/przemienniki/70cm/SR5ZU"/>
 <repeater callsign="SR5ZZZ" country="PL" region="5" frequency="4391125" band="70cm" ctcss="127.3" tx_power="15" city="Otwock" locator="KO02PC" type="FM" status="PLANED" latitude="52.108696" longitude="21.264175" opening="CTCSS" echolink="" URL="https://przemienniki.net/przemienniki/70cm/SR5ZZZ"/>
 <repeater callsign="SR6A" country="PL" region="6" frequency="1455750" band="2m" ctcss="0" tx_power="5" city="Brzeg" locator="JO80RU" type="DSTAR" status="OFF" latitude="50.853782" longitude="17.460431" opening="CARRIER" echolink="" URL="https://przemienniki.net/przemienniki/2m/SR6A"/>
 <repeater callsign="SR6AA" country="PL" region="6" frequency="4394000" band="70cm" ctcss="67" tx_power="15" city="Legnica" locator="JO81BE" type="FM" status="OPERATIONAL" latitude="51.205828" longitude="16.165898" opening="CTCSS" echolink="" URL="https://przemienniki.net/przemienniki/70cm/SR6AA"/>
 <repeater callsign="SR6ACZ" country="PL" region="6" frequency="4389500" band="70cm" ctcss="103.5" tx_power="10" city="Wroclaw" locator="JO81MC" type="FM" status="OPERATIONAL" latitude="51.111545" longitude="17.060299" opening="CTCSS" echolink="" URL="https://przemienniki.net/przemienniki/70cm/SR6ACZ"/>
 <repeater callsign="SR6B" country="PL" region="6" frequency="1457625" band="2m" ctcss="77" tx_power="5" city="Dzialoszyn - stacja meteo" locator="JO70LX" type="FM" status="OPERATIONAL" latitude="50.971612" longitude="14.940872" opening="1750HZ+CTSS" echolink="" URL="https://przemienniki.net/przemienniki/2m/SR6B"/>
 <repeater callsign="SR6C" country="PL" region="6" frequency="4392500" band="70cm" ctcss="67" tx_power="15" city="Boleslawiec" locator="JO71SG" type="FM" status="OPERATIONAL" latitude="51.262989" longitude="15.564836" opening="CTCSS" echolink="" URL="https://przemienniki.net/przemienniki/70cm/SR6C"/>
 <repeater callsign="SR6DA" country="PL" region="6" frequency="4391375" band="70cm" ctcss="0" tx_power="15" city="Dalachow" locator="JO91GB" type="FM" status="OPERATIONAL" latitude="51.077817" longitude="18.571536" opening="CARRIER" echolink="" URL="https://przemienniki.net/przemienniki/70cm/SR6DA"/>
 <repeater callsign="SR6DJG" country="PL" region="6" frequency="4391625" band="70cm" ctcss="0" tx_power="" city="Jezow Sudecki" locator="JO70VW" type="DMR" status="OFF" latitude="50.944061" longitude="15.762719" opening="CARRIER" echolink="" URL="https://przemienniki.net/przemienniki/70cm/SR6DJG"/>
 <repeater callsign="SR6DKB" country="PL" region="6" frequency="4382625" band="70cm" ctcss="0" tx_power="10" city="Krapkowice" locator="JO80XL" type="DSTAR" status="OPERATIONAL" latitude="50.488040" longitude="17.969138" opening="CARRIER" echolink="" URL="https://przemienniki.net/przemienniki/70cm/SR6DKB"/>
 <repeater callsign="SR6DKL" country="PL" region="6" frequency="4394750" band="70cm" ctcss="94.8" tx_power="" city="Klodzko" locator="JO80IK" type="FM" status="OPERATIONAL" latitude="50.444097" longitude="16.666667" opening="CTCSS" echolink="" URL="https://przemienniki.net/przemienniki/70cm/SR6DKL"/>
 <repeater callsign="SR6DL" country="PL" region="6" frequency="1449750" band="2m" ctcss="0" tx_power="15" city="Dalachow" locator="JO91GB" type="FM" status="OFF" latitude="51.078464" longitude="18.571192" opening="CARRIER" echolink="" URL="https://przemienniki.net/przemienniki/2m/SR6DL"/>
 <repeater callsign="SR6DMO" country="PL" region="6" frequency="4386250" band="70cm" ctcss="94.8" tx_power="15" city="Oława" locator="JO80PW" type="FM" status="PLANED" latitude="0.000000" longitude="0.000000" opening="OTHER" echolink="" URL="https://przemienniki.net/przemienniki/70cm/SR6DMO"/>
 <repeater callsign="SR6DMR" country="PL" region="6" frequency="4384875" band="70cm" ctcss="0" tx_power="" city="Wroclaw" locator="JO81MC" type="DMR" status="OPERATIONAL" latitude="51.114774" longitude="17.067787" opening="CARRIER" echolink="" URL="https://przemienniki.net/przemienniki/70cm/SR6DMR"/>
